name,lat,lng,state_abbreviation,state_name,population,is_capital,id,uppercase_name_nomalized,population_min_max_normalization
Abadia de Goiás,-16.7573,-49.4412,GO,Goiás,9158,false,1,ABADIA DE GOIAS,0.000676611
Abadiânia,-16.197,-48.7057,GO,Goiás,20873,false,2,ABADIANIA,0.0016217043
Acreúna,-17.396,-50.3749,GO,Goiás,22710,false,3,ACREUNA,0.0017699021
Adelândia,-16.4127,-50.1657,GO,Goiás,2515,false,4,ADELANDIA,0.0001406951
Água Fria de Goiás,-14.9778,-47.7823,GO,Goiás,5843,false,5,AGUA FRIA DE GOIAS,0.0004091774
Água Limpa,-18.0771,-48.7603,GO,Goiás,1809,false,6,AGUA LIMPA,0.0000837394
Águas Lindas de Goiás,-15.7617,-48.2816,GO,Goiás,222850,false,7,AGUAS LINDAS DE GOIAS,0.0179159526
Alexânia,-16.0834,-48.5076,GO,Goiás,28360,false,8,ALEXANIA,0.0022257089
Aloândia,-17.7292,-49.4769,GO,Goiás,1976,false,9,ALOANDIA,0.0000972119
Alto Horizonte,-14.1978,-49.3378,GO,Goiás,6796,false,10,ALTO HORIZONTE,0.0004860595
Alto Paraíso de Goiás,-14.1305,-47.51,GO,Goiás,7751,false,11,ALTO PARAISO DE GOIAS,0.000563103
Alvorada do Norte,-14.4797,-46.491,GO,Goiás,8749,false,12,ALVORADA DO NORTE,0.0006436154
Amaralina,-13.9236,-49.2962,GO,Goiás,3875,false,13,AMARALINA,0.0002504114
Americano do Brasil,-16.2514,-49.9831,GO,Goiás,6220,false,14,AMERICANO DO BRASIL,0.0004395914
Amorinópolis,-16.6151,-51.0919,GO,Goiás,3011,false,15,AMORINOPOLIS,0.0001807093
Anápolis,-16.3281,-48.953,GO,Goiás,396526,false,16,ANAPOLIS,0.0319270522
Anhanguera,-18.3339,-48.2204,GO,Goiás,1171,false,17,ANHANGUERA,0.0000322695
Anicuns,-16.4642,-49.9617,GO,Goiás,22113,false,18,ANICUNS,0.0017217398
Aparecida de Goiânia,-16.8198,-49.2469,GO,Goiás,601844,false,19,APARECIDA DE GOIANIA,0.0484908315
Aparecida do Rio Doce,-18.2941,-51.1516,GO,Goiás,2474,false,20,APARECIDA DO RIO DOCE,0.0001373874
Aporé,-18.9607,-51.9232,GO,Goiás,4266,false,21,APORE,0.0002819549
Araçu,-16.3563,-49.6804,GO,Goiás,3450,false,22,ARACU,0.0002161251
Aragarças,-15.8955,-52.2372,GO,Goiás,20410,false,23,ARAGARCAS,0.0015843524
Aragoiânia,-16.9087,-49.4476,GO,Goiás,10680,false,24,ARAGOIANIA,0.0007993965
Araguapaz,-15.0909,-50.6315,GO,Goiás,7795,false,25,ARAGUAPAZ,0.0005666526
Arenópolis,-16.3837,-51.5563,GO,Goiás,2462,false,26,ARENOPOLIS,0.0001364194
Aruanã,-14.9166,-51.075,GO,Goiás,10340,false,27,ARUANA,0.0007719674
Aurilândia,-16.6773,-50.4641,GO,Goiás,3000,false,28,AURILANDIA,0.0001798219
Avelinópolis,-16.4672,-49.7579,GO,Goiás,2401,false,29,AVELINOPOLIS,0.0001314983
Baliza,-16.1966,-52.5393,GO,Goiás,5418,false,30,BALIZA,0.0003748911
Barro Alto,-14.9658,-48.9086,GO,Goiás,11643,false,31,BARRO ALTO,0.0008770853
Bela Vista de Goiás,-16.9693,-48.9513,GO,Goiás,31004,false,32,BELA VISTA DE GOIAS,0.0024390104
Bom Jardim de Goiás,-16.2063,-52.1728,GO,Goiás,8912,false,33,BOM JARDIM DE GOIAS,0.0006567653
Bom Jesus de Goiás,-18.2173,-49.74,GO,Goiás,26069,false,34,BOM JESUS DE GOIAS,0.0020408853
Bonfinópolis,-16.6173,-48.9616,GO,Goiás,10120,false,35,BONFINOPOLIS,0.0007542192
Bonópolis,-13.6329,-49.8106,GO,Goiás,4579,false,36,BONOPOLIS,0.0003072058
Brazabrantes,-16.4281,-49.3863,GO,Goiás,3812,false,37,BRAZABRANTES,0.000245329
Britânia,-15.2428,-51.1602,GO,Goiás,5815,false,38,BRITANIA,0.0004069186
Buriti Alegre,-18.1378,-49.0404,GO,Goiás,9515,false,39,BURITI ALEGRE,0.0007054115
Buriti de Goiás,-16.1792,-50.4302,GO,Goiás,2464,false,40,BURITI DE GOIAS,0.0001365807
Buritinópolis,-14.4772,-46.4076,GO,Goiás,3272,false,41,BURITINOPOLIS,0.0002017651
Cabeceiras,-15.7995,-46.9265,GO,Goiás,8098,false,42,CABECEIRAS,0.0005910968
Cachoeira Alta,-18.7618,-50.9432,GO,Goiás,12843,false,43,CACHOEIRA ALTA,0.0009738939
Cachoeira de Goiás,-16.6635,-50.646,GO,Goiás,1336,false,44,CACHOEIRA DE GOIAS,0.0000455807
Cachoeira Dourada,-18.4859,-49.4766,GO,Goiás,7997,false,45,CACHOEIRA DOURADA,0.0005829487
Caçu,-18.5594,-51.1328,GO,Goiás,16525,false,46,CACU,0.0012709347
Caiapônia,-16.9539,-51.8091,GO,Goiás,19304,false,47,CAIAPONIA,0.0014951272
Caldas Novas,-17.7441,-48.6246,GO,Goiás,95183,false,48,CALDAS NOVAS,0.007616573
Caldazinha,-16.7117,-49.0013,GO,Goiás,3900,false,49,CALDAZINHA,0.0002524283
Campestre de Goiás,-16.7624,-49.695,GO,Goiás,3662,false,50,CAMPESTRE DE GOIAS,0.0002332279
Campinaçu,-13.787,-48.5704,GO,Goiás,3628,false,51,CAMPINACU,0.000230485
Campinorte,-14.3137,-49.1511,GO,Goiás,12880,false,52,CAMPINORTE,0.0009768788
Campo Alegre de Goiás,-17.6363,-47.7768,GO,Goiás,7884,false,53,CAMPO ALEGRE DE GOIAS,0.0005738326
Campo Limpo de Goiás,-16.2971,-49.0895,GO,Goiás,8087,false,54,CAMPO LIMPO DE GOIAS,0.0005902094
Campos Belos,-13.035,-46.7681,GO,Goiás,20124,false,55,CAMPOS BELOS,0.0015612797
Campos Verdes,-14.2442,-49.6528,GO,Goiás,1526,false,56,CAMPOS VERDES,0.0000609087
Carmo do Rio Verde,-15.3549,-49.708,GO,Goiás,10299,false,57,CARMO DO RIO VERDE,0.0007686598
Castelândia,-18.0921,-50.203,GO,Goiás,3380,false,58,CASTELANDIA,0.0002104779
Catalão,-18.1656,-47.944,GO,Goiás,113091,false,59,CATALAO,0.0090612791
Caturaí,-16.4447,-49.4936,GO,Goiás,5132,false,60,CATURAI,0.0003518184
Cavalcante,-13.7976,-47.4566,GO,Goiás,9740,false,61,CAVALCANTE,0.0007235631
Ceres,-15.3061,-49.6,GO,Goiás,22407,false,62,CERES,0.0017454579
Cezarina,-16.9718,-49.7758,GO,Goiás,8794,false,63,CEZARINA,0.0006472457
Chapadão do Céu,-18.4073,-52.549,GO,Goiás,10797,false,64,CHAPADAO DO CEU,0.0008088353
Cidade Ocidental,-16.0765,-47.9252,GO,Goiás,74370,false,65,CIDADE OCIDENTAL,0.0059375096
Cocalzinho de Goiás,-15.7914,-48.7747,GO,Goiás,20771,false,66,COCALZINHO DE GOIAS,0.0016134756
Colinas do Sul,-14.1528,-48.076,GO,Goiás,3339,false,67,COLINAS DO SUL,0.0002071703
Córrego do Ouro,-16.2918,-50.5503,GO,Goiás,2254,false,68,CORREGO DO OURO,0.0001196392
Corumbá de Goiás,-15.9245,-48.8117,GO,Goiás,11223,false,69,CORUMBA DE GOIAS,0.0008432024
Corumbaíba,-18.1415,-48.5626,GO,Goiás,10012,false,70,CORUMBAIBA,0.0007455064
Cristalina,-16.7676,-47.6131,GO,Goiás,61385,false,71,CRISTALINA,0.0048899606
Cristianópolis,-17.1987,-48.7034,GO,Goiás,2962,false,72,CRISTIANOPOLIS,0.0001767563
Crixás,-14.5412,-49.974,GO,Goiás,17136,false,73,CRIXAS,0.0013202264
Cromínia,-17.2883,-49.3798,GO,Goiás,3458,false,74,CROMINIA,0.0002167704
Cumari,-18.2644,-48.1511,GO,Goiás,2820,false,75,CUMARI,0.0001653006
Damianópolis,-14.5604,-46.178,GO,Goiás,3302,false,76,DAMIANOPOLIS,0.0002041853
Damolândia,-16.2544,-49.3631,GO,Goiás,2944,false,77,DAMOLANDIA,0.0001753041
Davinópolis,-18.1501,-47.5568,GO,Goiás,2094,false,78,DAVINOPOLIS,0.0001067314
Diorama,-16.2329,-51.2543,GO,Goiás,2477,false,79,DIORAMA,0.0001376295
Divinópolis de Goiás,-13.2853,-46.3999,GO,Goiás,4701,false,80,DIVINOPOLIS DE GOIAS,0.000317048
Doverlândia,-16.7188,-52.3189,GO,Goiás,7174,false,81,DOVERLANDIA,0.0005165542
Edealina,-17.4239,-49.6644,GO,Goiás,3678,false,82,EDEALINA,0.0002345187
Edéia,-17.3406,-49.9295,GO,Goiás,12559,false,83,EDEIA,0.0009509825
Estrela do Norte,-13.8665,-49.0716,GO,Goiás,3253,false,84,ESTRELA DO NORTE,0.0002002323
Faina,-15.4473,-50.3622,GO,Goiás,6527,false,85,FAINA,0.0004643583
Fazenda Nova,-16.1834,-50.7781,GO,Goiás,5471,false,86,FAZENDA NOVA,0.0003791668
Firminópolis,-16.5778,-50.304,GO,Goiás,13604,false,87,FIRMINOPOLIS,0.0010352866
Flores de Goiás,-14.4451,-47.0417,GO,Goiás,17415,false,88,FLORES DE GOIAS,0.0013427344
Formosa,-15.54,-47.337,GO,Goiás,125705,false,89,FORMOSA,0.0100788982
Formoso,-13.6499,-48.8775,GO,Goiás,4098,false,90,FORMOSO,0.0002684017
Gameleira de Goiás,-16.4854,-48.6454,GO,Goiás,3923,false,91,GAMELEIRA DE GOIAS,0.0002542838
Goianápolis,-16.5098,-49.0234,GO,Goiás,11217,false,92,GOIANAPOLIS,0.0008427183
Goiandira,-18.1352,-48.0875,GO,Goiás,5650,false,93,GOIANDIRA,0.0003936074
Goianésia,-15.3118,-49.1162,GO,Goiás,72045,false,94,GOIANESIA,0.0057499431
Goiânia,-16.6864,-49.2643,GO,Goiás,1555626,true,95,GOIANIA,0.1254360317
Goianira,-16.4947,-49.427,GO,Goiás,46278,false,96,GOIANIRA,0.0036712218
Goiás,-15.9333,-50.14,GO,Goiás,22122,false,97,GOIAS,0.0017224659
Goiatuba,-18.0105,-49.3658,GO,Goiás,34307,false,98,GOIATUBA,0.0027054759
Gouvelândia,-18.6238,-50.0805,GO,Goiás,6076,false,99,GOUVELANDIA,0.0004279744
Guapó,-16.8297,-49.5345,GO,Goiás,14206,false,100,GUAPO,0.0010838522
Guaraíta,-15.6121,-50.0265,GO,Goiás,1905,false,101,GUARAITA,0.0000914841
Guarani de Goiás,-13.9421,-46.4868,GO,Goiás,3801,false,102,GUARANI DE GOIAS,0.0002444416
Guarinos,-14.7292,-49.7006,GO,Goiás,1681,false,103,GUARINOS,0.0000734131
Heitoraí,-15.719,-49.8268,GO,Goiás,3742,false,104,HEITORAI,0.0002396818
Hidrolândia,-16.9626,-49.2265,GO,Goiás,22533,false,105,HIDROLANDIA,0.0017556228
Hidrolina,-14.7261,-49.4634,GO,Goiás,3450,false,106,HIDROLINA,0.0002161251
Iaciara,-14.1011,-46.6335,GO,Goiás,14215,false,107,IACIARA,0.0010845783
Inaciolândia,-18.4869,-49.9888,GO,Goiás,6275,false,108,INACIOLANDIA,0.0004440285
Indiara,-17.1387,-49.9862,GO,Goiás,15962,false,109,INDIARA,0.0012255154
Inhumas,-16.3611,-49.5001,GO,Goiás,53655,false,110,INHUMAS,0.0042663522
Ipameri,-17.7215,-48.1581,GO,Goiás,27365,false,111,IPAMERI,0.0021454385
Ipiranga de Goiás,-15.1689,-49.6695,GO,Goiás,2892,false,112,IPIRANGA DE GOIAS,0.0001711091
Iporá,-16.4398,-51.118,GO,Goiás,31471,false,113,IPORA,0.0024766851
Israelândia,-16.3144,-50.9087,GO,Goiás,2772,false,114,ISRAELANDIA,0.0001614282
Itaberaí,-16.0206,-49.806,GO,Goiás,44329,false,115,ITABERAI,0.0035139886
Itaguari,-15.918,-49.6071,GO,Goiás,4684,false,116,ITAGUARI,0.0003156765
Itaguaru,-15.7565,-49.6354,GO,Goiás,5184,false,117,ITAGUARU,0.0003560134
Itajá,-19.0673,-51.5495,GO,Goiás,4412,false,118,ITAJA,0.0002937332
Itapaci,-14.9522,-49.5511,GO,Goiás,23850,false,119,ITAPACI,0.0018618702
Itapirapuã,-15.8205,-50.6094,GO,Goiás,4380,false,120,ITAPIRAPUA,0.0002911517
Itapuranga,-15.5606,-49.949,GO,Goiás,25597,false,121,ITAPURANGA,0.0020028073
Itarumã,-18.7646,-51.3485,GO,Goiás,7337,false,122,ITARUMA,0.000529704
Itauçu,-16.2029,-49.6109,GO,Goiás,8968,false,123,ITAUCU,0.000661283
Itumbiara,-18.4093,-49.2158,GO,Goiás,106845,false,124,ITUMBIARA,0.0085573906
Ivolândia,-16.5995,-50.7921,GO,Goiás,2295,false,125,IVOLANDIA,0.0001229468
Jandaia,-17.0481,-50.1453,GO,Goiás,6001,false,126,JANDAIA,0.0004219239
Jaraguá,-15.7529,-49.3344,GO,Goiás,52160,false,127,JARAGUA,0.0041457449
Jataí,-17.8784,-51.7204,GO,Goiás,103221,false,128,JATAI,0.0082650289
Jaupaci,-16.1773,-50.9508,GO,Goiás,2843,false,129,JAUPACI,0.0001671561
Jesúpolis,-15.9484,-49.3739,GO,Goiás,2497,false,130,JESUPOLIS,0.0001392429
Joviânia,-17.802,-49.6197,GO,Goiás,7417,false,131,JOVIANIA,0.0005361579
Jussara,-15.8659,-50.8668,GO,Goiás,18266,false,132,JUSSARA,0.0014113878
Lagoa Santa,-19.1832,-51.3998,GO,Goiás,1652,false,133,LAGOA SANTA,0.0000710736
Leopoldo de Bulhões,-16.619,-48.7428,GO,Goiás,7663,false,134,LEOPOLDO DE BULHOES,0.0005560037
Luziânia,-16.253,-47.95,GO,Goiás,214645,false,135,LUZIANIA,0.0172540242
Mairipotaba,-17.2975,-49.4898,GO,Goiás,2358,false,136,MAIRIPOTABA,0.0001280293
Mambaí,-14.4823,-46.1165,GO,Goiás,9277,false,137,MAMBAI,0.0006862112
Mara Rosa,-14.0148,-49.1777,GO,Goiás,9234,false,138,MARA ROSA,0.0006827422
Marzagão,-17.983,-48.6415,GO,Goiás,2263,false,139,MARZAGAO,0.0001203653
Matrinchã,-15.4342,-50.7456,GO,Goiás,4321,false,140,MATRINCHA,0.0002863919
Maurilândia,-17.9719,-50.3388,GO,Goiás,14568,false,141,MAURILANDIA,0.0011130562
Mimoso de Goiás,-15.0515,-48.1611,GO,Goiás,2575,false,142,MIMOSO DE GOIAS,0.0001455355
Minaçu,-13.5304,-48.2206,GO,Goiás,28518,false,143,MINACU,0.0022384554
Mineiros,-17.5654,-52.5537,GO,Goiás,69477,false,144,MINEIROS,0.0055427728
Moiporá,-16.5434,-50.739,GO,Goiás,1471,false,145,MOIPORA,0.0000564716
Monte Alegre de Goiás,-13.2552,-46.8928,GO,Goiás,8759,false,146,MONTE ALEGRE DE GOIAS,0.0006444222
Montes Claros de Goiás,-16.0059,-51.3979,GO,Goiás,8037,false,147,MONTES CLAROS DE GOIAS,0.0005861757
Montividiu,-17.4439,-51.1728,GO,Goiás,13935,false,148,MONTIVIDIU,0.0010619897
Montividiu do Norte,-13.3485,-48.6853,GO,Goiás,4538,false,149,MONTIVIDIU DO NORTE,0.0003038981
Morrinhos,-17.7334,-49.1059,GO,Goiás,46955,false,150,MORRINHOS,0.0037258379
Morro Agudo de Goiás,-15.3184,-50.0553,GO,Goiás,2217,false,151,MORRO AGUDO DE GOIAS,0.0001166543
Mossâmedes,-16.124,-50.2136,GO,Goiás,4120,false,152,MOSSAMEDES,0.0002701765
Mozarlândia,-14.7457,-50.5713,GO,Goiás,16077,false,153,MOZARLANDIA,0.0012347929
Mundo Novo,-13.7729,-50.2814,GO,Goiás,4540,false,154,MUNDO NOVO,0.0003040595
Mutunópolis,-13.7303,-49.2745,GO,Goiás,3749,false,155,MUTUNOPOLIS,0.0002402465
Nazário,-16.5808,-49.8817,GO,Goiás,9375,false,156,NAZARIO,0.0006941172
Nerópolis,-16.4047,-49.2227,GO,Goiás,30931,false,157,NEROPOLIS,0.0024331212
Niquelândia,-14.4662,-48.4599,GO,Goiás,47064,false,158,NIQUELANDIA,0.0037346313
Nova América,-15.0206,-49.8953,GO,Goiás,2362,false,159,NOVA AMERICA,0.000128352
Nova Aurora,-18.0597,-48.2552,GO,Goiás,2236,false,160,NOVA AURORA,0.0001181871
Nova Crixás,-14.0957,-50.33,GO,Goiás,13020,false,161,NOVA CRIXAS,0.0009881731
Nova Glória,-15.145,-49.5737,GO,Goiás,8063,false,162,NOVA GLORIA,0.0005882732
Nova Iguaçu de Goiás,-14.2868,-49.3872,GO,Goiás,2939,false,163,NOVA IGUACU DE GOIAS,0.0001749008
Nova Roma,-13.7388,-46.8734,GO,Goiás,3208,false,164,NOVA ROMA,0.000196602
Nova Veneza,-16.3695,-49.3168,GO,Goiás,10193,false,165,NOVA VENEZA,0.0007601084
Novo Brasil,-16.0313,-50.7113,GO,Goiás,2775,false,166,NOVO BRASIL,0.0001616703
Novo Gama,-16.0592,-48.0417,GO,Goiás,119649,false,167,NOVO GAMA,0.0095903377
Novo Planalto,-13.2424,-49.506,GO,Goiás,4592,false,168,NOVO PLANALTO,0.0003082545
Orizona,-17.0334,-48.2964,GO,Goiás,15834,false,169,ORIZONA,0.0012151892
Ouro Verde de Goiás,-16.2181,-49.1942,GO,Goiás,3679,false,170,OURO VERDE DE GOIAS,0.0002345994
Ouvidor,-18.2277,-47.8355,GO,Goiás,6895,false,171,OUVIDOR,0.0004940462
Padre Bernardo,-15.1605,-48.2833,GO,Goiás,35011,false,172,PADRE BERNARDO,0.0027622703
Palestina de Goiás,-16.7392,-51.5309,GO,Goiás,3470,false,173,PALESTINA DE GOIAS,0.0002177385
Palmeiras de Goiás,-16.8044,-49.924,GO,Goiás,29915,false,174,PALMEIRAS DE GOIAS,0.0023511567
Palmelo,-17.3258,-48.426,GO,Goiás,2382,false,175,PALMELO,0.0001299655
Palminópolis,-16.7924,-50.1652,GO,Goiás,3578,false,176,PALMINOPOLIS,0.0002264513
Panamá,-18.1783,-49.355,GO,Goiás,2590,false,177,PANAMA,0.0001467456
Paranaiguara,-18.9141,-50.6539,GO,Goiás,10221,false,178,PARANAIGUARA,0.0007623672
Paraúna,-16.9463,-50.4484,GO,Goiás,10988,false,179,PARAUNA,0.000824244
Perolândia,-17.5258,-52.065,GO,Goiás,3156,false,180,PEROLANDIA,0.000192407
Petrolina de Goiás,-16.0968,-49.3364,GO,Goiás,10240,false,181,PETROLINA DE GOIAS,0.0007639
Pilar de Goiás,-14.7608,-49.5784,GO,Goiás,2135,false,182,PILAR DE GOIAS,0.000110039
Piracanjuba,-17.302,-49.017,GO,Goiás,24543,false,183,PIRACANJUBA,0.0019177771
Piranhas,-16.4258,-51.8235,GO,Goiás,10161,false,184,PIRANHAS,0.0007575268
Pirenópolis,-15.8507,-48.9584,GO,Goiás,25218,false,185,PIRENOPOLIS,0.0019722319
Pires do Rio,-17.3019,-48.2768,GO,Goiás,31909,false,186,PIRES DO RIO,0.0025120202
Planaltina,-15.452,-47.6089,GO,Goiás,91345,false,187,PLANALTINA,0.007306947
Pontalina,-17.5225,-49.4489,GO,Goiás,17899,false,188,PONTALINA,0.0013817805
Porangatu,-13.4391,-49.1503,GO,Goiás,45866,false,189,PORANGATU,0.0036379842
Porteirão,-17.8143,-50.1653,GO,Goiás,3979,false,190,PORTEIRAO,0.0002588015
Portelândia,-17.3554,-52.6799,GO,Goiás,4032,false,191,PORTELANDIA,0.0002630772
Posse,-14.0859,-46.3704,GO,Goiás,37924,false,192,POSSE,0.002997273
Professor Jamil,-17.2497,-49.244,GO,Goiás,3211,false,193,PROFESSOR JAMIL,0.000196844
Quirinópolis,-18.4472,-50.4547,GO,Goiás,51323,false,194,QUIRINOPOLIS,0.004078221
Rialma,-15.3145,-49.5814,GO,Goiás,10961,false,195,RIALMA,0.0008220658
Rianápolis,-15.4456,-49.5114,GO,Goiás,4832,false,196,RIANAPOLIS,0.0003276162
Rio Quente,-17.774,-48.7725,GO,Goiás,4728,false,197,RIO QUENTE,0.0003192262
Rio Verde,-17.7923,-50.9192,GO,Goiás,247259,false,198,RIO VERDE,0.0198851189
Rubiataba,-15.1617,-49.8048,GO,Goiás,20012,false,199,RUBIATABA,0.0015522442
Sanclerlândia,-16.197,-50.3124,GO,Goiás,7630,false,200,SANCLERLANDIA,0.0005533415
Santa Bárbara de Goiás,-16.5714,-49.6954,GO,Goiás,6701,false,201,SANTA BARBARA DE GOIAS,0.0004783955
Santa Cruz de Goiás,-17.3155,-48.4809,GO,Goiás,2782,false,202,SANTA CRUZ DE GOIAS,0.000162235
Santa Fé de Goiás,-15.7664,-51.1037,GO,Goiás,5585,false,203,SANTA FE DE GOIAS,0.0003883636
Santa Helena de Goiás,-17.8115,-50.5977,GO,Goiás,38962,false,204,SANTA HELENA DE GOIAS,0.0030810124
Santa Isabel,-15.2958,-49.4259,GO,Goiás,3821,false,205,SANTA ISABEL,0.000246055
Santa Rita do Araguaia,-17.3269,-53.2012,GO,Goiás,9110,false,206,SANTA RITA DO ARAGUAIA,0.0006727387
Santa Rita do Novo Destino,-15.1351,-49.1203,GO,Goiás,3367,false,207,SANTA RITA DO NOVO DESTINO,0.0002094291
Santa Rosa de Goiás,-16.084,-49.4953,GO,Goiás,2200,false,208,SANTA ROSA DE GOIAS,0.0001152828
Santa Tereza de Goiás,-13.7138,-49.0144,GO,Goiás,3207,false,209,SANTA TEREZA DE GOIAS,0.0001965213
Santa Terezinha de Goiás,-14.4326,-49.7091,GO,Goiás,8386,false,210,SANTA TEREZINHA DE GOIAS,0.0006143308
Santo Antônio da Barra,-17.5585,-50.6345,GO,Goiás,4886,false,211,SANTO ANTONIO DA BARRA,0.0003319726
Santo Antônio de Goiás,-16.4815,-49.3096,GO,Goiás,6593,false,212,SANTO ANTONIO DE GOIAS,0.0004696828
Santo Antônio do Descoberto,-15.9412,-48.2578,GO,Goiás,76871,false,213,SANTO ANTONIO DO DESCOBERTO,0.0061392747
São Domingos,-13.621,-46.7415,GO,Goiás,13305,false,214,SAO DOMINGOS,0.0010111652
São Francisco de Goiás,-15.9256,-49.2605,GO,Goiás,6265,false,215,SAO FRANCISCO DE GOIAS,0.0004432218
São João d'Aliança,-14.7048,-47.5228,GO,Goiás,14423,false,216,SAO JOAO D'ALIANCA,0.0011013585
São João da Paraúna,-16.8126,-50.4092,GO,Goiás,1312,false,217,SAO JOAO DA PARAUNA,0.0000436445
São Luís de Montes Belos,-16.5211,-50.3726,GO,Goiás,34488,false,218,SAO LUIS DE MONTES BELOS,0.0027200779
São Luiz do Norte,-14.8608,-49.3285,GO,Goiás,5263,false,219,SAO LUIZ DO NORTE,0.0003623866
São Miguel do Araguaia,-13.2731,-50.1634,GO,Goiás,21849,false,220,SAO MIGUEL DO ARAGUAIA,0.001700442
São Miguel do Passa Quatro,-17.0582,-48.662,GO,Goiás,4105,false,221,SAO MIGUEL DO PASSA QUATRO,0.0002689664
São Patrício,-15.35,-49.818,GO,Goiás,2040,false,222,SAO PATRICIO,0.000102375
São Simão,-18.996,-50.547,GO,Goiás,21318,false,223,SAO SIMAO,0.0016576042
Senador Canedo,-16.7084,-49.0914,GO,Goiás,121447,false,224,SENADOR CANEDO,0.0097353892
Serranópolis,-18.3067,-51.9586,GO,Goiás,8737,false,225,SERRANOPOLIS,0.0006426473
Silvânia,-16.66,-48.6083,GO,Goiás,20938,false,226,SILVANIA,0.0016269481
Simolândia,-14.4644,-46.4847,GO,Goiás,6895,false,227,SIMOLANDIA,0.0004940462
Sítio d'Abadia,-14.7992,-46.2506,GO,Goiás,3040,false,228,SITIO D'ABADIA,0.0001830488
Taquaral de Goiás,-16.0521,-49.6039,GO,Goiás,3506,false,229,TAQUARAL DE GOIAS,0.0002206428
Teresina de Goiás,-13.7801,-47.2659,GO,Goiás,3538,false,230,TERESINA DE GOIAS,0.0002232244
Terezópolis de Goiás,-16.3945,-49.0797,GO,Goiás,8326,false,231,TEREZOPOLIS DE GOIAS,0.0006094904
Três Ranchos,-18.3539,-47.776,GO,Goiás,2830,false,232,TRES RANCHOS,0.0001661073
Trindade,-16.6517,-49.4927,GO,Goiás,132006,false,233,TRINDADE,0.0105872236
Trombas,-13.5079,-48.7417,GO,Goiás,3497,false,234,TROMBAS,0.0002199167
Turvânia,-16.6125,-50.1369,GO,Goiás,4526,false,235,TURVANIA,0.00030293
Turvelândia,-17.8502,-50.3024,GO,Goiás,5447,false,236,TURVELANDIA,0.0003772306
Uirapuru,-14.2835,-49.9201,GO,Goiás,2829,false,237,UIRAPURU,0.0001660266
Uruaçu,-14.5238,-49.1396,GO,Goiás,41150,false,238,URUACU,0.0032575266
Uruana,-15.4993,-49.6861,GO,Goiás,13795,false,239,URUANA,0.0010506953
Urutaí,-17.4651,-48.2015,GO,Goiás,3056,false,240,URUTAI,0.0001843396
Valparaíso de Goiás,-16.0651,-47.9757,GO,Goiás,175720,false,241,VALPARAISO DE GOIAS,0.0141137973
Varjão,-17.0471,-49.6312,GO,Goiás,3848,false,242,VARJAO,0.0002482332
Vianópolis,-16.7405,-48.5159,GO,Goiás,14088,false,243,VIANOPOLIS,0.0010743327
Vicentinópolis,-17.7322,-49.8047,GO,Goiás,9002,false,244,VICENTINOPOLIS,0.0006640259
Vila Boa,-15.0387,-47.052,GO,Goiás,6451,false,245,VILA BOA,0.0004582271
Vila Propício,-15.4542,-48.8819,GO,Goiás,5941,false,246,VILA PROPICIO,0.0004170834
Abadia dos Dourados,-18.4831,-47.3916,MG,Minas Gerais,7022,false,247,ABADIA DOS DOURADOS,0.0005042918
Abaeté,-19.1551,-45.4444,MG,Minas Gerais,23263,false,248,ABAETE,0.0018145147
Abre Campo,-20.2996,-42.4743,MG,Minas Gerais,13434,false,249,ABRE CAMPO,0.0010215721
Acaiaca,-20.359,-43.1439,MG,Minas Gerais,3995,false,250,ACAIACA,0.0002600923
Açucena,-19.0671,-42.5419,MG,Minas Gerais,9270,false,251,ACUCENA,0.0006856465
Água Boa,-17.9914,-42.3806,MG,Minas Gerais,13319,false,252,AGUA BOA,0.0010122946
Água Comprida,-20.0576,-48.1069,MG,Minas Gerais,1986,false,253,AGUA COMPRIDA,0.0000980186
Aguanil,-20.9439,-45.3915,MG,Minas Gerais,4557,false,254,AGUANIL,0.0003054309
Águas Formosas,-17.0802,-40.9384,MG,Minas Gerais,19285,false,255,AGUAS FORMOSAS,0.0014935944
Águas Vermelhas,-15.7431,-41.4571,MG,Minas Gerais,13656,false,256,AGUAS VERMELHAS,0.0010394817
Aimorés,-19.5007,-41.0746,MG,Minas Gerais,25116,false,257,AIMORES,0.0019640032
Aiuruoca,-21.9736,-44.6042,MG,Minas Gerais,5949,false,258,AIURUOCA,0.0004177288
Alagoa,-22.171,-44.6413,MG,Minas Gerais,2657,false,259,ALAGOA,0.0001521508
Albertina,-22.2018,-46.6139,MG,Minas Gerais,3015,false,260,ALBERTINA,0.000181032
Além Paraíba,-21.8797,-42.7176,MG,Minas Gerais,35438,false,261,ALEM PARAIBA,0.002796718
Alfenas,-21.4256,-45.9477,MG,Minas Gerais,80973,false,262,ALFENAS,0.0064701986
Alfredo Vasconcelos,-21.1535,-43.7718,MG,Minas Gerais,7052,false,263,ALFREDO VASCONCELOS,0.000506712
Almenara,-16.1785,-40.6942,MG,Minas Gerais,42380,false,264,ALMENARA,0.0033567554
Alpercata,-18.974,-41.97,MG,Minas Gerais,7448,false,265,ALPERCATA,0.0005386588
Alpinópolis,-20.8631,-46.3878,MG,Minas Gerais,20059,false,266,ALPINOPOLIS,0.0015560359
Alterosa,-21.2488,-46.1387,MG,Minas Gerais,14566,false,267,ALTEROSA,0.0011128948
Alto Caparaó,-20.431,-41.8738,MG,Minas Gerais,5938,false,268,ALTO CAPARAO,0.0004168414
Alto Jequitibá,-20.4208,-41.967,MG,Minas Gerais,8286,false,269,ALTO JEQUITIBA,0.0006062635
Alto Rio Doce,-21.0281,-43.4067,MG,Minas Gerais,10723,false,270,ALTO RIO DOCE,0.0008028655
Alvarenga,-19.4174,-41.7317,MG,Minas Gerais,3783,false,271,ALVARENGA,0.0002429894
Alvinópolis,-20.1098,-43.0535,MG,Minas Gerais,15135,false,272,ALVINOPOLIS,0.0011587982
Alvorada de Minas,-18.7334,-43.3638,MG,Minas Gerais,3605,false,273,ALVORADA DE MINAS,0.0002286295
Amparo do Serra,-20.5051,-42.8009,MG,Minas Gerais,4643,false,274,AMPARO DO SERRA,0.0003123689
Andradas,-22.0695,-46.5724,MG,Minas Gerais,41704,false,275,ANDRADAS,0.0033022199
Andrelândia,-21.7411,-44.3117,MG,Minas Gerais,12189,false,276,ANDRELANDIA,0.0009211332
Angelândia,-17.7279,-42.2641,MG,Minas Gerais,8594,false,277,ANGELANDIA,0.000631111
Antônio Carlos,-21.321,-43.7451,MG,Minas Gerais,11471,false,278,ANTONIO CARLOS,0.0008632095
Antônio Dias,-19.6491,-42.8732,MG,Minas Gerais,9233,false,279,ANTONIO DIAS,0.0006826615
Antônio Prado de Minas,-21.0192,-42.1109,MG,Minas Gerais,1577,false,280,ANTONIO PRADO DE MINAS,0.0000650231
Araçaí,-19.1955,-44.2493,MG,Minas Gerais,2360,false,281,ARACAI,0.0001281906
Aracitaba,-21.3446,-43.3736,MG,Minas Gerais,2056,false,282,ARACITABA,0.0001036658
Araçuaí,-16.8523,-42.0637,MG,Minas Gerais,36715,false,283,ARACUAI,0.0028997384
Araguari,-18.6456,-48.1934,MG,Minas Gerais,118361,false,284,ARAGUARI,0.0094864299
Arantina,-21.9102,-44.2555,MG,Minas Gerais,2779,false,285,ARANTINA,0.000161993
Araponga,-20.6686,-42.5178,MG,Minas Gerais,8467,false,286,ARAPONGA,0.0006208654
Araporã,-18.4357,-49.1847,MG,Minas Gerais,6992,false,287,ARAPORA,0.0005018716
Arapuá,-19.0268,-46.1484,MG,Minas Gerais,2836,false,288,ARAPUA,0.0001665914
Araújos,-19.9405,-45.1671,MG,Minas Gerais,9523,false,289,ARAUJOS,0.0007060569
Araxá,-19.5902,-46.9438,MG,Minas Gerais,108403,false,290,ARAXA,0.0086830804
Arceburgo,-21.359,-46.9401,MG,Minas Gerais,10990,false,291,ARCEBURGO,0.0008244054
Arcos,-20.2863,-45.5373,MG,Minas Gerais,40658,false,292,ARCOS,0.0032178351
Areado,-21.3572,-46.1421,MG,Minas Gerais,15288,false,293,AREADO,0.0011711413
Argirita,-21.6083,-42.8292,MG,Minas Gerais,2681,false,294,ARGIRITA,0.0001540869
Aricanduva,-17.8666,-42.5533,MG,Minas Gerais,5305,false,295,ARICANDUVA,0.0003657749
Arinos,-15.9187,-46.1043,MG,Minas Gerais,17850,false,296,ARINOS,0.0013778275
Astolfo Dutra,-21.3184,-42.8572,MG,Minas Gerais,14358,false,297,ASTOLFO DUTRA,0.0010961147
Ataléia,-18.0438,-41.1149,MG,Minas Gerais,12496,false,298,ATALEIA,0.0009459001
Augusto de Lima,-18.0997,-44.2655,MG,Minas Gerais,4833,false,299,AUGUSTO DE LIMA,0.0003276969
Baependi,-21.957,-44.8874,MG,Minas Gerais,19249,false,300,BAEPENDI,0.0014906901
Baldim,-19.2832,-43.9613,MG,Minas Gerais,7780,false,301,BALDIM,0.0005654425
Bambuí,-20.0166,-45.9754,MG,Minas Gerais,23964,false,302,BAMBUI,0.001871067
Bandeira,-15.8783,-40.5622,MG,Minas Gerais,4738,false,303,BANDEIRA,0.0003200329
Bandeira do Sul,-21.7308,-46.3833,MG,Minas Gerais,5808,false,304,BANDEIRA DO SUL,0.0004063538
Barão de Cocais,-19.9389,-43.4755,MG,Minas Gerais,33232,false,305,BARAO DE COCAIS,0.0026187516
Barão de Monte Alto,-21.2444,-42.2372,MG,Minas Gerais,5311,false,306,BARAO DE MONTE ALTO,0.000366259
Barbacena,-21.2214,-43.7703,MG,Minas Gerais,139061,false,307,BARBACENA,0.0111563772
Barra Longa,-20.2869,-43.0402,MG,Minas Gerais,4905,false,308,BARRA LONGA,0.0003335054
Barroso,-21.1907,-43.972,MG,Minas Gerais,20981,false,309,BARROSO,0.0016304171
Bela Vista de Minas,-19.8302,-43.0922,MG,Minas Gerais,10269,false,310,BELA VISTA DE MINAS,0.0007662396
Belmiro Braga,-21.944,-43.4084,MG,Minas Gerais,3422,false,311,BELMIRO BRAGA,0.0002138662
Belo Horizonte,-19.9102,-43.9266,MG,Minas Gerais,2530701,true,312,BELO HORIZONTE,0.2040990187
Belo Oriente,-19.2199,-42.4828,MG,Minas Gerais,27277,false,313,BELO ORIENTE,0.0021383392
Belo Vale,-20.4077,-44.0275,MG,Minas Gerais,7723,false,314,BELO VALE,0.0005608441
Berilo,-16.9567,-42.4606,MG,Minas Gerais,11813,false,315,BERILO,0.0008907999
Berizal,-15.61,-41.7432,MG,Minas Gerais,4792,false,316,BERIZAL,0.0003243893
Bertópolis,-17.059,-40.58,MG,Minas Gerais,4609,false,317,BERTOPOLIS,0.000309626
Betim,-19.9668,-44.2008,MG,Minas Gerais,450024,false,318,BETIM,0.0362429381
Bias Fortes,-21.602,-43.7574,MG,Minas Gerais,3282,false,319,BIAS FORTES,0.0002025719
Bicas,-21.7232,-43.056,MG,Minas Gerais,14612,false,320,BICAS,0.0011166058
Biquinhas,-18.7754,-45.4974,MG,Minas Gerais,2482,false,321,BIQUINHAS,0.0001380328
Boa Esperança,-21.0927,-45.5612,MG,Minas Gerais,40308,false,322,BOA ESPERANCA,0.0031895993
Bocaina de Minas,-22.1697,-44.3972,MG,Minas Gerais,5088,false,323,BOCAINA DE MINAS,0.0003482687
Bocaiúva,-17.1135,-43.8104,MG,Minas Gerais,50521,false,324,BOCAIUVA,0.0040135206
Bom Despacho,-19.7386,-45.2622,MG,Minas Gerais,51436,false,325,BOM DESPACHO,0.0040873371
Bom Jardim de Minas,-21.9479,-44.1885,MG,Minas Gerais,6444,false,326,BOM JARDIM DE MINAS,0.0004576624
Bom Jesus da Penha,-21.0148,-46.5174,MG,Minas Gerais,4270,false,327,BOM JESUS DA PENHA,0.0002822776
Bom Jesus do Amparo,-19.7054,-43.4782,MG,Minas Gerais,6182,false,328,BOM JESUS DO AMPARO,0.0004365258
Bom Jesus do Galho,-19.836,-42.3165,MG,Minas Gerais,14792,false,329,BOM JESUS DO GALHO,0.0011311271
Bom Repouso,-22.4675,-46.144,MG,Minas Gerais,10527,false,330,BOM REPOUSO,0.0007870534
Bom Sucesso,-21.0329,-44.7537,MG,Minas Gerais,17612,false,331,BOM SUCESSO,0.0013586271
Bonfim,-20.3302,-44.2366,MG,Minas Gerais,6852,false,332,BONFIM,0.0004905773
Bonfinópolis de Minas,-16.568,-45.9839,MG,Minas Gerais,5397,false,333,BONFINOPOLIS DE MINAS,0.0003731969
Bonito de Minas,-15.3231,-44.7543,MG,Minas Gerais,11502,false,334,BONITO DE MINAS,0.0008657103
Borda da Mata,-22.2707,-46.1653,MG,Minas Gerais,19809,false,335,BORDA DA MATA,0.0015358674
Botelhos,-21.6412,-46.391,MG,Minas Gerais,14927,false,336,BOTELHOS,0.001142018
Botumirim,-16.8657,-43.0086,MG,Minas Gerais,6259,false,337,BOTUMIRIM,0.0004427377
Brás Pires,-20.8419,-43.2406,MG,Minas Gerais,4255,false,338,BRAS PIRES,0.0002810675
Brasilândia de Minas,-16.9999,-46.0081,MG,Minas Gerais,16950,false,339,BRASILANDIA DE MINAS,0.0013052211
Brasília de Minas,-16.2104,-44.4299,MG,Minas Gerais,32460,false,340,BRASILIA DE MINAS,0.0025564714
Braúnas,-19.0562,-42.7099,MG,Minas Gerais,4737,false,341,BRAUNAS,0.0003199522
Brazópolis,-22.4743,-45.6166,MG,Minas Gerais,14364,false,342,BRAZOPOLIS,0.0010965987
Brumadinho,-20.151,-44.2007,MG,Minas Gerais,41208,false,343,BRUMADINHO,0.0032622057
Bueno Brandão,-22.4383,-46.3491,MG,Minas Gerais,10982,false,344,BUENO BRANDAO,0.00082376
Buenópolis,-17.8744,-44.1775,MG,Minas Gerais,10342,false,345,BUENOPOLIS,0.0007721288
Bugre,-19.4231,-42.2552,MG,Minas Gerais,3984,false,346,BUGRE,0.0002592049
Buritis,-15.6218,-46.4221,MG,Minas Gerais,25179,false,347,BURITIS,0.0019690856
Buritizeiro,-17.3656,-44.9606,MG,Minas Gerais,28184,false,348,BURITIZEIRO,0.0022115104
Cabeceira Grande,-16.0335,-47.0862,MG,Minas Gerais,7025,false,349,CABECEIRA GRANDE,0.0005045338
Cabo Verde,-21.4699,-46.3919,MG,Minas Gerais,14074,false,350,CABO VERDE,0.0010732033
Cachoeira da Prata,-19.521,-44.4544,MG,Minas Gerais,3580,false,351,CACHOEIRA DA PRATA,0.0002266127
Cachoeira de Minas,-22.3511,-45.7809,MG,Minas Gerais,11609,false,352,CACHOEIRA DE MINAS,0.0008743424
Cachoeira de Pajeú,-15.9688,-41.4948,MG,Minas Gerais,9470,false,353,CACHOEIRA DE PAJEU,0.0007017812
Cachoeira Dourada,-18.5161,-49.5039,MG,Minas Gerais,2720,false,354,CACHOEIRA DOURADA,0.0001572332
Caetanópolis,-19.2971,-44.4189,MG,Minas Gerais,11869,false,355,CAETANOPOLIS,0.0008953176
Caeté,-19.8826,-43.6704,MG,Minas Gerais,45364,false,356,CAETE,0.0035974859
Caiana,-20.6956,-41.9292,MG,Minas Gerais,5584,false,357,CAIANA,0.0003882829
Cajuri,-20.7903,-42.7925,MG,Minas Gerais,3961,false,358,CAJURI,0.0002573494
Caldas,-21.9183,-46.3843,MG,Minas Gerais,14600,false,359,CALDAS,0.0011156377
Camacho,-20.6294,-45.1593,MG,Minas Gerais,2839,false,360,CAMACHO,0.0001668334
Camanducaia,-22.7515,-46.1494,MG,Minas Gerais,21831,false,361,CAMANDUCAIA,0.0016989898
Cambuí,-22.6115,-46.0572,MG,Minas Gerais,30068,false,362,CAMBUI,0.0023634998
Cambuquira,-21.854,-45.2896,MG,Minas Gerais,12810,false,363,CAMBUQUIRA,0.0009712316
Campanário,-18.2427,-41.7355,MG,Minas Gerais,3739,false,364,CAMPANARIO,0.0002394398
Campanha,-21.836,-45.4004,MG,Minas Gerais,16855,false,365,CAMPANHA,0.0012975571
Campestre,-21.7079,-46.2381,MG,Minas Gerais,21052,false,366,CAMPESTRE,0.001636145
Campina Verde,-19.5382,-49.4862,MG,Minas Gerais,19759,false,367,CAMPINA VERDE,0.0015318338
Campo Azul,-16.5028,-44.8096,MG,Minas Gerais,3830,false,368,CAMPO AZUL,0.0002467811
Campo Belo,-20.8932,-45.2699,MG,Minas Gerais,54338,false,369,CAMPO BELO,0.0043214524
Campo do Meio,-21.1127,-45.8273,MG,Minas Gerais,11648,false,370,CAMPO DO MEIO,0.0008774887
Campo Florido,-19.7631,-48.5716,MG,Minas Gerais,8383,false,371,CAMPO FLORIDO,0.0006140888
Campos Altos,-19.6914,-46.1725,MG,Minas Gerais,15661,false,372,CAMPOS ALTOS,0.0012012326
Campos Gerais,-21.237,-45.7569,MG,Minas Gerais,28908,false,373,CAMPOS GERAIS,0.0022699182
Cana Verde,-21.0232,-45.1801,MG,Minas Gerais,5585,false,374,CANA VERDE,0.0003883636
Canaã,-20.6869,-42.6167,MG,Minas Gerais,4533,false,375,CANAA,0.0003034948
Canápolis,-18.7212,-49.2035,MG,Minas Gerais,12251,false,376,CANAPOLIS,0.000926135
Candeias,-20.7692,-45.2765,MG,Minas Gerais,14890,false,377,CANDEIAS,0.0011390331
Cantagalo,-18.5248,-42.6223,MG,Minas Gerais,4575,false,378,CANTAGALO,0.0003068831
Caparaó,-20.5289,-41.9061,MG,Minas Gerais,5464,false,379,CAPARAO,0.0003786021
Capela Nova,-20.9179,-43.622,MG,Minas Gerais,4616,false,380,CAPELA NOVA,0.0003101907
Capelinha,-17.6888,-42.5147,MG,Minas Gerais,38321,false,381,CAPELINHA,0.0030293005
Capetinga,-20.6163,-47.0571,MG,Minas Gerais,6860,false,382,CAPETINGA,0.0004912227
Capim Branco,-19.5471,-44.1304,MG,Minas Gerais,9896,false,383,CAPIM BRANCO,0.0007361483
Capinópolis,-18.6862,-49.5706,MG,Minas Gerais,16294,false,384,CAPINOPOLIS,0.0012522991
Capitão Andrade,-19.0748,-41.8614,MG,Minas Gerais,5559,false,385,CAPITAO ANDRADE,0.0003862661
Capitão Enéas,-16.3265,-43.7084,MG,Minas Gerais,15388,false,386,CAPITAO ENEAS,0.0011792087
Capitólio,-20.6164,-46.0493,MG,Minas Gerais,8693,false,387,CAPITOLIO,0.0006390977
Caputira,-20.1703,-42.2683,MG,Minas Gerais,9318,false,388,CAPUTIRA,0.0006895188
Caraí,-17.1862,-41.7004,MG,Minas Gerais,23872,false,389,CARAI,0.001863645
Caranaíba,-20.8707,-43.7417,MG,Minas Gerais,3150,false,390,CARANAIBA,0.0001919229
Carandaí,-20.9566,-43.811,MG,Minas Gerais,25831,false,391,CARANDAI,0.002021685
Carangola,-20.7343,-42.0313,MG,Minas Gerais,33022,false,392,CARANGOLA,0.0026018101
Caratinga,-19.7868,-42.1292,MG,Minas Gerais,93124,false,393,CARATINGA,0.0074504657
Carbonita,-17.5255,-43.0137,MG,Minas Gerais,9423,false,394,CARBONITA,0.0006979896
Careaçu,-22.0424,-45.696,MG,Minas Gerais,6826,false,395,CAREACU,0.0004884797
Carlos Chagas,-17.6973,-40.7723,MG,Minas Gerais,18516,false,396,CARLOS CHAGAS,0.0014315562
Carmésia,-19.0877,-43.1382,MG,Minas Gerais,2660,false,397,CARMESIA,0.0001523928
Carmo da Cachoeira,-21.4633,-45.2201,MG,Minas Gerais,12193,false,398,CARMO DA CACHOEIRA,0.0009214559
Carmo da Mata,-20.5575,-44.8735,MG,Minas Gerais,11546,false,399,CARMO DA MATA,0.00086926
Carmo de Minas,-22.1204,-45.1307,MG,Minas Gerais,15031,false,400,CARMO DE MINAS,0.0011504081
Carmo do Cajuru,-20.1912,-44.7664,MG,Minas Gerais,22900,false,401,CARMO DO CAJURU,0.0017852301
Carmo do Paranaíba,-18.991,-46.3167,MG,Minas Gerais,30339,false,402,CARMO DO PARANAIBA,0.0023853624
Carmo do Rio Claro,-20.9736,-46.1149,MG,Minas Gerais,21310,false,403,CARMO DO RIO CLARO,0.0016569588
Carmópolis de Minas,-20.5396,-44.6336,MG,Minas Gerais,19756,false,404,CARMOPOLIS DE MINAS,0.0015315917
Carneirinho,-19.6987,-50.6894,MG,Minas Gerais,10103,false,405,CARNEIRINHO,0.0007528477
Carrancas,-21.4898,-44.6446,MG,Minas Gerais,4052,false,406,CARRANCAS,0.0002646907
Carvalhópolis,-21.7735,-45.8421,MG,Minas Gerais,3614,false,407,CARVALHOPOLIS,0.0002293556
Carvalhos,-22,-44.4632,MG,Minas Gerais,4445,false,408,CARVALHOS,0.0002963955
Casa Grande,-20.7925,-43.9343,MG,Minas Gerais,2251,false,409,CASA GRANDE,0.0001193972
Cascalho Rico,-18.5772,-47.8716,MG,Minas Gerais,3108,false,410,CASCALHO RICO,0.0001885346
Cássia,-20.5831,-46.9201,MG,Minas Gerais,17741,false,411,CASSIA,0.0013690341
Cataguases,-21.3924,-42.6896,MG,Minas Gerais,75942,false,412,CATAGUASES,0.0060643288
Catas Altas,-20.0734,-43.4061,MG,Minas Gerais,5465,false,413,CATAS ALTAS,0.0003786827
Catas Altas da Noruega,-20.6901,-43.4939,MG,Minas Gerais,3665,false,414,CATAS ALTAS DA NORUEGA,0.0002334699
Catuji,-17.3018,-41.5276,MG,Minas Gerais,6206,false,415,CATUJI,0.000438462
Catuti,-15.3616,-42.9627,MG,Minas Gerais,4944,false,416,CATUTI,0.0003366517
Caxambu,-21.9753,-44.9319,MG,Minas Gerais,21566,false,417,CAXAMBU,0.0016776113
Cedro do Abaeté,-19.1458,-45.712,MG,Minas Gerais,1150,false,418,CEDRO DO ABAETE,0.0000305754
Central de Minas,-18.7612,-41.3143,MG,Minas Gerais,7059,false,419,CENTRAL DE MINAS,0.0005072767
Centralina,-18.5852,-49.2014,MG,Minas Gerais,10343,false,420,CENTRALINA,0.0007722094
Chácara,-21.6733,-43.215,MG,Minas Gerais,3216,false,421,CHACARA,0.0001972474
Chalé,-20.0453,-41.6897,MG,Minas Gerais,5695,false,422,CHALE,0.0003972377
Chapada do Norte,-17.0881,-42.5392,MG,Minas Gerais,15334,false,423,CHAPADA DO NORTE,0.0011748523
Chapada Gaúcha,-15.3014,-45.6116,MG,Minas Gerais,14217,false,424,CHAPADA GAUCHA,0.0010847397
Chiador,-21.9996,-43.0617,MG,Minas Gerais,2657,false,425,CHIADOR,0.0001521508
Cipotânea,-20.9026,-43.3629,MG,Minas Gerais,6811,false,426,CIPOTANEA,0.0004872696
Claraval,-20.397,-47.2768,MG,Minas Gerais,4873,false,427,CLARAVAL,0.0003309238
Claro dos Poções,-17.082,-44.2061,MG,Minas Gerais,7478,false,428,CLARO DOS POCOES,0.000541079
Cláudio,-20.4437,-44.7673,MG,Minas Gerais,29093,false,429,CLAUDIO,0.0022848428
Coimbra,-20.8535,-42.8008,MG,Minas Gerais,7631,false,430,COIMBRA,0.0005534221
Coluna,-18.2311,-42.8352,MG,Minas Gerais,8810,false,431,COLUNA,0.0006485365
Comendador Gomes,-19.6973,-49.0789,MG,Minas Gerais,3128,false,432,COMENDADOR GOMES,0.0001901481
Comercinho,-16.2963,-41.7945,MG,Minas Gerais,6624,false,433,COMERCINHO,0.0004721836
Conceição da Aparecida,-21.096,-46.2049,MG,Minas Gerais,10351,false,434,CONCEICAO DA APARECIDA,0.0007728548
Conceição da Barra de Minas,-21.1316,-44.4729,MG,Minas Gerais,3939,false,435,CONCEICAO DA BARRA DE MINAS,0.0002555745
Conceição das Alagoas,-19.9172,-48.3839,MG,Minas Gerais,28782,false,436,CONCEICAO DAS ALAGOAS,0.0022597533
Conceição das Pedras,-22.1576,-45.4562,MG,Minas Gerais,2814,false,437,CONCEICAO DAS PEDRAS,0.0001648165
Conceição de Ipanema,-19.9326,-41.6908,MG,Minas Gerais,4581,false,438,CONCEICAO DE IPANEMA,0.0003073671
Conceição do Mato Dentro,-19.0344,-43.4221,MG,Minas Gerais,17438,false,439,CONCEICAO DO MATO DENTRO,0.0013445899
Conceição do Pará,-19.7456,-44.8945,MG,Minas Gerais,5558,false,440,CONCEICAO DO PARA,0.0003861854
Conceição do Rio Verde,-21.8778,-45.087,MG,Minas Gerais,13729,false,441,CONCEICAO DO RIO VERDE,0.0010453709
Conceição dos Ouros,-22.4078,-45.7996,MG,Minas Gerais,11852,false,442,CONCEICAO DOS OUROS,0.0008939462
Cônego Marinho,-15.2892,-44.4181,MG,Minas Gerais,7730,false,443,CONEGO MARINHO,0.0005614088
Confins,-19.6282,-43.9931,MG,Minas Gerais,6867,false,444,CONFINS,0.0004917874
Congonhal,-22.1488,-46.043,MG,Minas Gerais,12209,false,445,CONGONHAL,0.0009227467
Congonhas,-20.4958,-43.851,MG,Minas Gerais,55836,false,446,CONGONHAS,0.0044423017
Congonhas do Norte,-18.8021,-43.6767,MG,Minas Gerais,5047,false,447,CONGONHAS DO NORTE,0.0003449611
Conquista,-19.9312,-47.5492,MG,Minas Gerais,6997,false,448,CONQUISTA,0.000502275
Conselheiro Lafaiete,-20.6634,-43.7846,MG,Minas Gerais,130584,false,449,CONSELHEIRO LAFAIETE,0.0104725055
Conselheiro Pena,-19.1789,-41.4736,MG,Minas Gerais,22975,false,450,CONSELHEIRO PENA,0.0017912806
Consolação,-22.5493,-45.9255,MG,Minas Gerais,1786,false,451,CONSOLACAO,0.0000818839
Contagem,-19.9321,-44.0539,MG,Minas Gerais,673849,false,452,CONTAGEM,0.0542997471
Coqueiral,-21.1858,-45.4366,MG,Minas Gerais,9099,false,453,COQUEIRAL,0.0006718512
Coração de Jesus,-16.6841,-44.3635,MG,Minas Gerais,26620,false,454,CORACAO DE JESUS,0.0020853366
Cordisburgo,-19.1224,-44.3224,MG,Minas Gerais,8903,false,455,CORDISBURGO,0.0006560392
Cordislândia,-21.7891,-45.6999,MG,Minas Gerais,3546,false,456,CORDISLANDIA,0.0002238697
Corinto,-18.369,-44.4542,MG,Minas Gerais,23607,false,457,CORINTO,0.0018422665
Coroaci,-18.6156,-42.2791,MG,Minas Gerais,9897,false,458,COROACI,0.0007362289
Coromandel,-18.4734,-47.1933,MG,Minas Gerais,27958,false,459,COROMANDEL,0.0021932781
Coronel Fabriciano,-19.5179,-42.6276,MG,Minas Gerais,110709,false,460,CORONEL FABRICIANO,0.0088691141
Coronel Murta,-16.6148,-42.184,MG,Minas Gerais,9209,false,461,CORONEL MURTA,0.0006807254
Coronel Pacheco,-21.5898,-43.256,MG,Minas Gerais,3095,false,462,CORONEL PACHECO,0.0001874859
Coronel Xavier Chaves,-21.0277,-44.2206,MG,Minas Gerais,3448,false,463,CORONEL XAVIER CHAVES,0.0002159637
Córrego Danta,-19.8198,-45.9032,MG,Minas Gerais,3168,false,464,CORREGO DANTA,0.0001933751
Córrego do Bom Jesus,-22.6269,-46.0241,MG,Minas Gerais,3685,false,465,CORREGO DO BOM JESUS,0.0002350834
Córrego Fundo,-20.4474,-45.5617,MG,Minas Gerais,6425,false,466,CORREGO FUNDO,0.0004561296
Córrego Novo,-19.8361,-42.3988,MG,Minas Gerais,2688,false,467,CORREGO NOVO,0.0001546516
Couto de Magalhães de Minas,-18.0727,-43.4648,MG,Minas Gerais,4436,false,468,COUTO DE MAGALHAES DE MINAS,0.0002956694
Crisólita,-17.2381,-40.9184,MG,Minas Gerais,6814,false,469,CRISOLITA,0.0004875117
Cristais,-20.8733,-45.5167,MG,Minas Gerais,13060,false,470,CRISTAIS,0.0009914001
Cristália,-16.716,-42.8571,MG,Minas Gerais,5992,false,471,CRISTALIA,0.0004211978
Cristiano Otoni,-20.8324,-43.8166,MG,Minas Gerais,5161,false,472,CRISTIANO OTONI,0.0003541579
Cristina,-22.208,-45.2673,MG,Minas Gerais,10211,false,473,CRISTINA,0.0007615605
Crucilândia,-20.3923,-44.3334,MG,Minas Gerais,5072,false,474,CRUCILANDIA,0.0003469779
Cruzeiro da Fortaleza,-18.944,-46.6669,MG,Minas Gerais,3651,false,475,CRUZEIRO DA FORTALEZA,0.0002323405
Cruzília,-21.84,-44.8067,MG,Minas Gerais,15529,false,476,CRUZILIA,0.0011905837
Cuparaque,-18.9648,-41.0986,MG,Minas Gerais,5026,false,477,CUPARAQUE,0.0003432669
Curral de Dentro,-15.9327,-41.8557,MG,Minas Gerais,7867,false,478,CURRAL DE DENTRO,0.0005724611
Curvelo,-18.7527,-44.4303,MG,Minas Gerais,81085,false,479,CURVELO,0.006479234
Datas,-18.4478,-43.6591,MG,Minas Gerais,5431,false,480,DATAS,0.0003759398
Delfim Moreira,-22.5036,-45.2792,MG,Minas Gerais,8007,false,481,DELFIM MOREIRA,0.0005837555
Delfinópolis,-20.3468,-46.8456,MG,Minas Gerais,7146,false,482,DELFINOPOLIS,0.0005142954
Delta,-19.9721,-47.7841,MG,Minas Gerais,10994,false,483,DELTA,0.0008247281
Descoberto,-21.46,-42.9618,MG,Minas Gerais,5044,false,484,DESCOBERTO,0.0003447191
Desterro de Entre Rios,-20.665,-44.3334,MG,Minas Gerais,7266,false,485,DESTERRO DE ENTRE RIOS,0.0005239762
Desterro do Melo,-21.143,-43.5178,MG,Minas Gerais,2867,false,486,DESTERRO DO MELO,0.0001690922
Diamantina,-18.2413,-43.6031,MG,Minas Gerais,47924,false,487,DIAMANTINA,0.0038040108
Diogo de Vasconcelos,-20.4879,-43.1953,MG,Minas Gerais,3779,false,488,DIOGO DE VASCONCELOS,0.0002426667
Dionísio,-19.8433,-42.7701,MG,Minas Gerais,7493,false,489,DIONISIO,0.0005422892
Divinésia,-20.9917,-43.0003,MG,Minas Gerais,3430,false,490,DIVINESIA,0.0002145116
Divino,-20.6134,-42.1438,MG,Minas Gerais,20020,false,491,DIVINO,0.0015528896
Divino das Laranjeiras,-18.7755,-41.4781,MG,Minas Gerais,4969,false,492,DIVINO DAS LARANJEIRAS,0.0003386685
Divinolândia de Minas,-18.8004,-42.6103,MG,Minas Gerais,7655,false,493,DIVINOLANDIA DE MINAS,0.0005553583
Divinópolis,-20.1446,-44.8912,MG,Minas Gerais,242505,false,494,DIVINOPOLIS,0.0195015958
Divisa Alegre,-15.7221,-41.3463,MG,Minas Gerais,6946,false,495,DIVISA ALEGRE,0.0004981606
Divisa Nova,-21.5092,-46.1904,MG,Minas Gerais,6039,false,496,DIVISA NOVA,0.0004249895
Divisópolis,-15.7254,-40.9997,MG,Minas Gerais,11396,false,497,DIVISOPOLIS,0.0008571589
Dom Bosco,-16.652,-46.2597,MG,Minas Gerais,3635,false,498,DOM BOSCO,0.0002310497
Dom Cavati,-19.3735,-42.1121,MG,Minas Gerais,5025,false,499,DOM CAVATI,0.0003431863
Dom Joaquim,-18.961,-43.2544,MG,Minas Gerais,4436,false,500,DOM JOAQUIM,0.0002956694
Dom Silvério,-20.1627,-42.9627,MG,Minas Gerais,5227,false,501,DOM SILVERIO,0.0003594824
Dom Viçoso,-22.2511,-45.1643,MG,Minas Gerais,2992,false,502,DOM VICOSO,0.0001791765
Dona Eusébia,-21.319,-42.807,MG,Minas Gerais,6664,false,503,DONA EUSEBIA,0.0004754106
Dores de Campos,-21.1139,-44.0207,MG,Minas Gerais,10291,false,504,DORES DE CAMPOS,0.0007680144
Dores de Guanhães,-19.0516,-42.9254,MG,Minas Gerais,5139,false,505,DORES DE GUANHAES,0.0003523831
Dores do Indaiá,-19.4628,-45.5927,MG,Minas Gerais,13373,false,506,DORES DO INDAIA,0.001016651
Dores do Turvo,-20.9785,-43.1834,MG,Minas Gerais,4202,false,507,DORES DO TURVO,0.0002767917
Doresópolis,-20.2868,-45.9007,MG,Minas Gerais,1539,false,508,DORESOPOLIS,0.0000619575
Douradoquara,-18.4338,-47.5993,MG,Minas Gerais,1915,false,509,DOURADOQUARA,0.0000922908
Durandé,-20.2058,-41.7977,MG,Minas Gerais,7898,false,510,DURANDE,0.000574962
Elói Mendes,-21.6088,-45.5691,MG,Minas Gerais,28556,false,511,ELOI MENDES,0.002241521
Engenheiro Caldas,-19.2065,-42.0503,MG,Minas Gerais,11268,false,512,ENGENHEIRO CALDAS,0.0008468327
Engenheiro Navarro,-17.2831,-43.947,MG,Minas Gerais,7240,false,513,ENGENHEIRO NAVARRO,0.0005218787
Entre Folhas,-19.6218,-42.2306,MG,Minas Gerais,5383,false,514,ENTRE FOLHAS,0.0003720675
Entre Rios de Minas,-20.6706,-44.0654,MG,Minas Gerais,15458,false,515,ENTRE RIOS DE MINAS,0.0011848558
Ervália,-20.8403,-42.6544,MG,Minas Gerais,19019,false,516,ERVALIA,0.0014721352
Esmeraldas,-19.764,-44.3065,MG,Minas Gerais,72512,false,517,ESMERALDAS,0.0057876177
Espera Feliz,-20.6508,-41.9119,MG,Minas Gerais,25287,false,518,ESPERA FELIZ,0.0019777984
Espinosa,-14.9249,-42.809,MG,Minas Gerais,31603,false,519,ESPINOSA,0.002487334
Espírito Santo do Dourado,-22.0454,-45.9548,MG,Minas Gerais,4728,false,520,ESPIRITO SANTO DO DOURADO,0.0003192262
Estiva,-22.4577,-46.0191,MG,Minas Gerais,11416,false,521,ESTIVA,0.0008587724
Estrela Dalva,-21.7412,-42.4574,MG,Minas Gerais,2308,false,522,ESTRELA DALVA,0.0001239956
Estrela do Indaiá,-19.5169,-45.7859,MG,Minas Gerais,3483,false,523,ESTRELA DO INDAIA,0.0002187873
Estrela do Sul,-18.7399,-47.6956,MG,Minas Gerais,8057,false,524,ESTRELA DO SUL,0.0005877892
Eugenópolis,-21.1002,-42.1878,MG,Minas Gerais,11383,false,525,EUGENOPOLIS,0.0008561102
Ewbank da Câmara,-21.5498,-43.5068,MG,Minas Gerais,3932,false,526,EWBANK DA CAMARA,0.0002550098
Extrema,-22.854,-46.3178,MG,Minas Gerais,37649,false,527,EXTREMA,0.0029750877
Fama,-21.4089,-45.8286,MG,Minas Gerais,2374,false,528,FAMA,0.0001293201
Faria Lemos,-20.8097,-42.0213,MG,Minas Gerais,3202,false,529,FARIA LEMOS,0.000196118
Felício dos Santos,-18.0755,-43.2422,MG,Minas Gerais,4656,false,530,FELICIO DOS SANTOS,0.0003134176
Felisburgo,-16.6348,-40.7605,MG,Minas Gerais,7548,false,531,FELISBURGO,0.0005467262
Felixlândia,-18.7507,-44.9004,MG,Minas Gerais,15528,false,532,FELIXLANDIA,0.001190503
Fernandes Tourinho,-19.1541,-42.0803,MG,Minas Gerais,3500,false,533,FERNANDES TOURINHO,0.0002201587
Ferros,-19.2343,-43.0192,MG,Minas Gerais,9576,false,534,FERROS,0.0007103326
Fervedouro,-20.726,-42.279,MG,Minas Gerais,11100,false,535,FERVEDOURO,0.0008332795
Florestal,-19.888,-44.4318,MG,Minas Gerais,7602,false,536,FLORESTAL,0.0005510826
Formiga,-20.4618,-45.4268,MG,Minas Gerais,67956,false,537,FORMIGA,0.005420068
Formoso,-14.9446,-46.2371,MG,Minas Gerais,9810,false,538,FORMOSO,0.0007292103
Fortaleza de Minas,-20.8508,-46.712,MG,Minas Gerais,4460,false,539,FORTALEZA DE MINAS,0.0002976056
Fortuna de Minas,-19.5578,-44.4472,MG,Minas Gerais,2986,false,540,FORTUNA DE MINAS,0.0001786924
Francisco Badaró,-16.9883,-42.3568,MG,Minas Gerais,10311,false,541,FRANCISCO BADARO,0.0007696279
Francisco Dumont,-17.3107,-44.2317,MG,Minas Gerais,5268,false,542,FRANCISCO DUMONT,0.00036279
Francisco Sá,-16.4827,-43.4896,MG,Minas Gerais,26459,false,543,FRANCISCO SA,0.0020723481
Franciscópolis,-17.9578,-42.0094,MG,Minas Gerais,5287,false,544,FRANCISCOPOLIS,0.0003643228
Frei Gaspar,-18.0709,-41.4325,MG,Minas Gerais,5858,false,545,FREI GASPAR,0.0004103875
Frei Inocêncio,-18.5556,-41.9121,MG,Minas Gerais,9716,false,546,FREI INOCENCIO,0.000721627
Frei Lagonegro,-18.1751,-42.7617,MG,Minas Gerais,3496,false,547,FREI LAGONEGRO,0.0002198361
Fronteira,-20.2748,-49.1984,MG,Minas Gerais,18866,false,548,FRONTEIRA,0.0014597921
Fronteira dos Vales,-16.8898,-40.923,MG,Minas Gerais,4542,false,549,FRONTEIRA DOS VALES,0.0003042208
Fruta de Leite,-16.1225,-42.5288,MG,Minas Gerais,5232,false,550,FRUTA DE LEITE,0.0003598857
Frutal,-20.0259,-48.9355,MG,Minas Gerais,60508,false,551,FRUTAL,0.0048192097
Funilândia,-19.3661,-44.061,MG,Minas Gerais,4434,false,552,FUNILANDIA,0.0002955081
Galiléia,-19.0005,-41.5387,MG,Minas Gerais,6764,false,553,GALILEIA,0.000483478
Gameleiras,-15.0829,-43.125,MG,Minas Gerais,5084,false,554,GAMELEIRAS,0.000347946
Glaucilândia,-16.8481,-43.692,MG,Minas Gerais,3177,false,555,GLAUCILANDIA,0.0001941011
Goiabeira,-18.9807,-41.2235,MG,Minas Gerais,3402,false,556,GOIABEIRA,0.0002122527
Goianá,-21.536,-43.1957,MG,Minas Gerais,4014,false,557,GOIANA,0.0002616251
Gonçalves,-22.6545,-45.8556,MG,Minas Gerais,4360,false,558,GONCALVES,0.0002895382
Gonzaga,-18.8196,-42.4769,MG,Minas Gerais,6184,false,559,GONZAGA,0.0004366872
Gouveia,-18.4519,-43.7423,MG,Minas Gerais,11811,false,560,GOUVEIA,0.0008906385
Governador Valadares,-18.8545,-41.9555,MG,Minas Gerais,282164,false,561,GOVERNADOR VALADARES,0.0227010372
Grão Mogol,-16.5662,-42.8923,MG,Minas Gerais,15943,false,562,GRAO MOGOL,0.0012239826
Grupiara,-18.5003,-47.7318,MG,Minas Gerais,1386,false,563,GRUPIARA,0.0000496144
Guanhães,-18.7713,-42.9312,MG,Minas Gerais,34818,false,564,GUANHAES,0.0027467002
Guapé,-20.7631,-45.9152,MG,Minas Gerais,14269,false,565,GUAPE,0.0010889347
Guaraciaba,-20.5716,-43.0094,MG,Minas Gerais,10307,false,566,GUARACIABA,0.0007693052
Guaraciama,-17.0142,-43.6675,MG,Minas Gerais,5005,false,567,GUARACIAMA,0.0003415728
Guaranésia,-21.3009,-46.7964,MG,Minas Gerais,19014,false,568,GUARANESIA,0.0014717318
Guarani,-21.3563,-43.0328,MG,Minas Gerais,8926,false,569,GUARANI,0.0006578947
Guarará,-21.7304,-43.0334,MG,Minas Gerais,3755,false,570,GUARARA,0.0002407306
Guarda-Mor,-17.7673,-47.0998,MG,Minas Gerais,6558,false,571,GUARDA-MOR,0.0004668592
Guaxupé,-21.305,-46.7081,MG,Minas Gerais,52234,false,572,GUAXUPE,0.0041517148
Guidoval,-21.155,-42.7887,MG,Minas Gerais,7026,false,573,GUIDOVAL,0.0005046145
Guimarânia,-18.8425,-46.7901,MG,Minas Gerais,8168,false,574,GUIMARANIA,0.000596744
Guiricema,-21.0098,-42.7207,MG,Minas Gerais,8296,false,575,GUIRICEMA,0.0006070702
Gurinhatã,-19.2143,-49.7876,MG,Minas Gerais,5516,false,576,GURINHATA,0.0003827971
Heliodora,-22.0644,-45.5453,MG,Minas Gerais,6623,false,577,HELIODORA,0.000472103
Iapu,-19.4387,-42.2147,MG,Minas Gerais,11085,false,578,IAPU,0.0008320694
Ibertioga,-21.433,-43.9639,MG,Minas Gerais,4999,false,579,IBERTIOGA,0.0003410887
Ibiá,-19.4749,-46.5474,MG,Minas Gerais,25511,false,580,IBIA,0.0019958693
Ibiaí,-16.8591,-44.9046,MG,Minas Gerais,8478,false,581,IBIAI,0.0006217528
Ibiracatu,-15.6605,-44.1667,MG,Minas Gerais,5340,false,582,IBIRACATU,0.0003685985
Ibiraci,-20.4611,-47.1222,MG,Minas Gerais,14128,false,583,IBIRACI,0.0010775597
Ibirité,-20.0252,-44.0569,MG,Minas Gerais,184030,false,584,IBIRITE,0.0147841964
Ibitiúra de Minas,-22.0604,-46.4368,MG,Minas Gerais,3497,false,585,IBITIURA DE MINAS,0.0002199167
Ibituruna,-21.1541,-44.7479,MG,Minas Gerais,3003,false,586,IBITURUNA,0.0001800639
Icaraí de Minas,-16.214,-44.9034,MG,Minas Gerais,12200,false,587,ICARAI DE MINAS,0.0009220206
Igarapé,-20.0707,-44.2994,MG,Minas Gerais,44561,false,588,IGARAPE,0.0035327049
Igaratinga,-19.9476,-44.7063,MG,Minas Gerais,11146,false,589,IGARATINGA,0.0008369905
Iguatama,-20.1776,-45.7111,MG,Minas Gerais,7901,false,590,IGUATAMA,0.0005752041
Ijaci,-21.1738,-44.9233,MG,Minas Gerais,6667,false,591,IJACI,0.0004756526
Ilicínea,-20.9402,-45.8308,MG,Minas Gerais,12511,false,592,ILICINEA,0.0009471102
Imbé de Minas,-19.6017,-41.9695,MG,Minas Gerais,6976,false,593,IMBE DE MINAS,0.0005005808
Inconfidentes,-22.3136,-46.3264,MG,Minas Gerais,7387,false,594,INCONFIDENTES,0.0005337377
Indaiabira,-15.4911,-42.2005,MG,Minas Gerais,7328,false,595,INDAIABIRA,0.000528978
Indianópolis,-19.0341,-47.9155,MG,Minas Gerais,7009,false,596,INDIANOPOLIS,0.000503243
Ingaí,-21.4024,-44.9152,MG,Minas Gerais,2785,false,597,INGAI,0.000162477
Inhapim,-19.5476,-42.1147,MG,Minas Gerais,24020,false,598,INHAPIM,0.0018755847
Inhaúma,-19.4898,-44.3934,MG,Minas Gerais,6352,false,599,INHAUMA,0.0004502404
Inimutaba,-18.7271,-44.3584,MG,Minas Gerais,7605,false,600,INIMUTABA,0.0005513246
Ipaba,-19.4158,-42.4139,MG,Minas Gerais,18926,false,601,IPABA,0.0014646325
Ipanema,-19.7992,-41.7164,MG,Minas Gerais,20133,false,602,IPANEMA,0.0015620057
Ipatinga,-19.4703,-42.5476,MG,Minas Gerais,267333,false,603,IPATINGA,0.0215045644
Ipiaçu,-18.6927,-49.9436,MG,Minas Gerais,4229,false,604,IPIACU,0.0002789699
Ipuiúna,-22.1013,-46.1915,MG,Minas Gerais,10156,false,605,IPUIUNA,0.0007571234
Iraí de Minas,-18.9819,-47.461,MG,Minas Gerais,7067,false,606,IRAI DE MINAS,0.0005079221
Itabira,-19.6239,-43.2312,MG,Minas Gerais,121717,false,607,ITABIRA,0.0097571711
Itabirinha,-18.5712,-41.234,MG,Minas Gerais,11637,false,608,ITABIRINHA,0.0008766013
Itabirito,-20.2501,-43.8038,MG,Minas Gerais,52996,false,609,ITABIRITO,0.0042131882
Itacambira,-17.0625,-43.3069,MG,Minas Gerais,5447,false,610,ITACAMBIRA,0.0003772306
Itacarambi,-15.089,-44.095,MG,Minas Gerais,18175,false,611,ITACARAMBI,0.0014040465
Itaguara,-20.3947,-44.4875,MG,Minas Gerais,13510,false,612,ITAGUARA,0.0010277033
Itaipé,-17.4014,-41.6697,MG,Minas Gerais,12910,false,613,ITAIPE,0.000979299
Itajubá,-22.4225,-45.4598,MG,Minas Gerais,97782,false,614,ITAJUBA,0.0078262442
Itamarandiba,-17.8552,-42.8561,MG,Minas Gerais,35130,false,615,ITAMARANDIBA,0.0027718704
Itamarati de Minas,-21.4179,-42.813,MG,Minas Gerais,4395,false,616,ITAMARATI DE MINAS,0.0002923618
Itambacuri,-18.035,-41.683,MG,Minas Gerais,23207,false,617,ITAMBACURI,0.0018099969
Itambé do Mato Dentro,-19.4158,-43.3182,MG,Minas Gerais,2032,false,618,ITAMBE DO MATO DENTRO,0.0001017296
Itamogi,-21.0758,-47.046,MG,Minas Gerais,10122,false,619,ITAMOGI,0.0007543805
Itamonte,-22.2859,-44.868,MG,Minas Gerais,15844,false,620,ITAMONTE,0.0012159959
Itanhandu,-22.2942,-44.9382,MG,Minas Gerais,15511,false,621,ITANHANDU,0.0011891315
Itanhomi,-19.1736,-41.863,MG,Minas Gerais,12259,false,622,ITANHOMI,0.0009267804
Itaobim,-16.5571,-41.5017,MG,Minas Gerais,20997,false,623,ITAOBIM,0.0016317079
Itapagipe,-19.9062,-49.3781,MG,Minas Gerais,15511,false,624,ITAPAGIPE,0.0011891315
Itapecerica,-20.4704,-45.127,MG,Minas Gerais,21760,false,625,ITAPECERICA,0.001693262
Itapeva,-22.7665,-46.2241,MG,Minas Gerais,9976,false,626,ITAPEVA,0.0007426022
Itatiaiuçu,-20.1983,-44.4211,MG,Minas Gerais,11354,false,627,ITATIAIUCU,0.0008537706
Itaú de Minas,-20.7375,-46.7525,MG,Minas Gerais,16286,false,628,ITAU DE MINAS,0.0012516537
Itaúna,-20.0818,-44.5801,MG,Minas Gerais,94455,false,629,ITAUNA,0.0075578425
Itaverava,-20.6769,-43.6141,MG,Minas Gerais,5321,false,630,ITAVERAVA,0.0003670657
Itinga,-16.61,-41.7672,MG,Minas Gerais,15053,false,631,ITINGA,0.0011521829
Itueta,-19.3999,-41.1746,MG,Minas Gerais,6074,false,632,ITUETA,0.0004278131
Ituiutaba,-18.9772,-49.4639,MG,Minas Gerais,105818,false,633,ITUIUTABA,0.0084745387
Itumirim,-21.3171,-44.8724,MG,Minas Gerais,5978,false,634,ITUMIRIM,0.0004200684
Iturama,-19.7276,-50.1966,MG,Minas Gerais,40101,false,635,ITURAMA,0.0031728998
Itutinga,-21.3,-44.6567,MG,Minas Gerais,3749,false,636,ITUTINGA,0.0002402465
Jaboticatubas,-19.5119,-43.7373,MG,Minas Gerais,20683,false,637,JABOTICATUBAS,0.0016063763
Jacinto,-16.1428,-40.295,MG,Minas Gerais,12320,false,638,JACINTO,0.0009317015
Jacuí,-21.0137,-46.7359,MG,Minas Gerais,7695,false,639,JACUI,0.0005585853
Jacutinga,-22.286,-46.6166,MG,Minas Gerais,26538,false,640,JACUTINGA,0.0020787213
Jaguaraçu,-19.647,-42.7498,MG,Minas Gerais,3151,false,641,JAGUARACU,0.0001920036
Jaíba,-15.3432,-43.6688,MG,Minas Gerais,39850,false,642,JAIBA,0.0031526507
Jampruca,-18.461,-41.809,MG,Minas Gerais,5453,false,643,JAMPRUCA,0.0003777146
Janaúba,-15.8022,-43.3132,MG,Minas Gerais,72374,false,644,JANAUBA,0.0057764847
Januária,-15.4802,-44.3639,MG,Minas Gerais,67958,false,645,JANUARIA,0.0054202293
Japaraíba,-20.1442,-45.5015,MG,Minas Gerais,4418,false,646,JAPARAIBA,0.0002942173
Japonvar,-15.9891,-44.2758,MG,Minas Gerais,7991,false,647,JAPONVAR,0.0005824647
Jeceaba,-20.5339,-43.9894,MG,Minas Gerais,4795,false,648,JECEABA,0.0003246313
Jenipapo de Minas,-17.0831,-42.2589,MG,Minas Gerais,7781,false,649,JENIPAPO DE MINAS,0.0005655232
Jequeri,-20.4542,-42.6651,MG,Minas Gerais,12246,false,650,JEQUERI,0.0009257316
Jequitaí,-17.229,-44.4376,MG,Minas Gerais,7407,false,651,JEQUITAI,0.0005353512
Jequitibá,-19.2345,-44.0304,MG,Minas Gerais,5203,false,652,JEQUITIBA,0.0003575462
Jequitinhonha,-16.4375,-41.0117,MG,Minas Gerais,25555,false,653,JEQUITINHONHA,0.001999419
Jesuânia,-21.9887,-45.2911,MG,Minas Gerais,4774,false,654,JESUANIA,0.0003229371
Joaíma,-16.6522,-41.0229,MG,Minas Gerais,15476,false,655,JOAIMA,0.0011863079
Joanésia,-19.1729,-42.6775,MG,Minas Gerais,4382,false,656,JOANESIA,0.000291313
João Monlevade,-19.8126,-43.1735,MG,Minas Gerais,80903,false,657,JOAO MONLEVADE,0.0064645514
João Pinheiro,-17.7398,-46.1715,MG,Minas Gerais,47990,false,658,JOAO PINHEIRO,0.0038093353
Joaquim Felício,-17.758,-44.1643,MG,Minas Gerais,4757,false,659,JOAQUIM FELICIO,0.0003215657
Jordânia,-15.9009,-40.1841,MG,Minas Gerais,10872,false,660,JORDANIA,0.0008148859
José Gonçalves de Minas,-16.9053,-42.6014,MG,Minas Gerais,4474,false,661,JOSE GONCALVES DE MINAS,0.000298735
José Raydan,-18.2195,-42.4946,MG,Minas Gerais,5104,false,662,JOSE RAYDAN,0.0003495595
Josenópolis,-16.5417,-42.5151,MG,Minas Gerais,4911,false,663,JOSENOPOLIS,0.0003339895
Juatuba,-19.9448,-44.3451,MG,Minas Gerais,27823,false,664,JUATUBA,0.0021823871
Juiz de Fora,-21.7595,-43.3398,MG,Minas Gerais,577532,false,665,JUIZ DE FORA,0.0465294906
Juramento,-16.8473,-43.5865,MG,Minas Gerais,4359,false,666,JURAMENTO,0.0002894575
Juruaia,-21.2493,-46.5735,MG,Minas Gerais,10795,false,667,JURUAIA,0.000808674
Juvenília,-14.2662,-44.1597,MG,Minas Gerais,5706,false,668,JUVENILIA,0.0003981251
Ladainha,-17.6279,-41.7488,MG,Minas Gerais,18272,false,669,LADAINHA,0.0014118718
Lagamar,-18.1759,-46.8063,MG,Minas Gerais,7588,false,670,LAGAMAR,0.0005499532
Lagoa da Prata,-20.0237,-45.5401,MG,Minas Gerais,53236,false,671,LAGOA DA PRATA,0.0042325499
Lagoa dos Patos,-16.978,-44.5754,MG,Minas Gerais,4062,false,672,LAGOA DOS PATOS,0.0002654974
Lagoa Dourada,-20.9139,-44.0797,MG,Minas Gerais,13115,false,673,LAGOA DOURADA,0.0009958372
Lagoa Formosa,-18.7715,-46.4012,MG,Minas Gerais,18168,false,674,LAGOA FORMOSA,0.0014034818
Lagoa Grande,-17.8323,-46.5165,MG,Minas Gerais,9681,false,675,LAGOA GRANDE,0.0007188034
Lagoa Santa,-19.6397,-43.8932,MG,Minas Gerais,66744,false,676,LAGOA SANTA,0.0053222914
Lajinha,-20.1539,-41.6228,MG,Minas Gerais,19914,false,677,LAJINHA,0.0015443382
Lambari,-21.9671,-45.3498,MG,Minas Gerais,20995,false,678,LAMBARI,0.0016315465
Lamim,-20.79,-43.4706,MG,Minas Gerais,3366,false,679,LAMIM,0.0002093485
Laranjal,-21.3715,-42.4732,MG,Minas Gerais,6856,false,680,LARANJAL,0.0004909
Lassance,-17.887,-44.5735,MG,Minas Gerais,6494,false,681,LASSANCE,0.000461696
Lavras,-21.248,-45.0009,MG,Minas Gerais,105756,false,682,LAVRAS,0.0084695369
Leandro Ferreira,-19.7193,-45.0279,MG,Minas Gerais,3222,false,683,LEANDRO FERREIRA,0.0001977314
Leme do Prado,-17.0793,-42.6936,MG,Minas Gerais,4923,false,684,LEME DO PRADO,0.0003349575
Leopoldina,-21.5296,-42.6421,MG,Minas Gerais,52690,false,685,LEOPOLDINA,0.004188502
Liberdade,-22.0275,-44.3208,MG,Minas Gerais,4994,false,686,LIBERDADE,0.0003406854
Lima Duarte,-21.8386,-43.7934,MG,Minas Gerais,16749,false,687,LIMA DUARTE,0.0012890057
Limeira do Oeste,-19.5512,-50.5815,MG,Minas Gerais,7640,false,688,LIMEIRA DO OESTE,0.0005541482
Lontra,-15.9013,-44.306,MG,Minas Gerais,9766,false,689,LONTRA,0.0007256607
Luisburgo,-20.4468,-42.0976,MG,Minas Gerais,6249,false,690,LUISBURGO,0.000441931
Luislândia,-16.1095,-44.5886,MG,Minas Gerais,6735,false,691,LUISLANDIA,0.0004811384
Luminárias,-21.5145,-44.9034,MG,Minas Gerais,5431,false,692,LUMINARIAS,0.0003759398
Luz,-19.7911,-45.6794,MG,Minas Gerais,18297,false,693,LUZ,0.0014138887
Machacalis,-17.0723,-40.7245,MG,Minas Gerais,7112,false,694,MACHACALIS,0.0005115524
Machado,-21.6778,-45.9219,MG,Minas Gerais,42682,false,695,MACHADO,0.0033811188
Madre de Deus de Minas,-21.483,-44.3287,MG,Minas Gerais,5119,false,696,MADRE DE DEUS DE MINAS,0.0003507696
Malacacheta,-17.8456,-42.0769,MG,Minas Gerais,18556,false,697,MALACACHETA,0.0014347832
Mamonas,-15.0479,-42.9469,MG,Minas Gerais,6565,false,698,MAMONAS,0.0004674239
Manga,-14.7529,-43.9391,MG,Minas Gerais,18051,false,699,MANGA,0.0013940429
Manhuaçu,-20.2572,-42.028,MG,Minas Gerais,92074,false,700,MANHUACU,0.0073657582
Manhumirim,-20.3591,-41.9589,MG,Minas Gerais,22894,false,701,MANHUMIRIM,0.0017847461
Mantena,-18.7761,-40.9874,MG,Minas Gerais,27651,false,702,MANTENA,0.0021685112
Mar de Espanha,-21.8707,-43.0062,MG,Minas Gerais,12985,false,703,MAR DE ESPANHA,0.0009853496
Maravilhas,-19.5076,-44.6779,MG,Minas Gerais,8113,false,704,MARAVILHAS,0.0005923069
Maria da Fé,-22.3044,-45.3773,MG,Minas Gerais,14019,false,705,MARIA DA FE,0.0010687663
Mariana,-20.3765,-43.414,MG,Minas Gerais,61830,false,706,MARIANA,0.0049258604
Marilac,-18.5079,-42.0822,MG,Minas Gerais,4079,false,707,MARILAC,0.0002668689
Mário Campos,-20.0582,-44.1883,MG,Minas Gerais,15814,false,708,MARIO CAMPOS,0.0012135757
Maripá de Minas,-21.6979,-42.9546,MG,Minas Gerais,3000,false,709,MARIPA DE MINAS,0.0001798219
Marliéria,-19.7096,-42.7327,MG,Minas Gerais,4030,false,710,MARLIERIA,0.0002629159
Marmelópolis,-22.447,-45.1645,MG,Minas Gerais,2701,false,711,MARMELOPOLIS,0.0001557004
Martinho Campos,-19.3306,-45.2434,MG,Minas Gerais,13497,false,712,MARTINHO CAMPOS,0.0010266545
Martins Soares,-20.2546,-41.8786,MG,Minas Gerais,8640,false,713,MARTINS SOARES,0.000634822
Mata Verde,-15.6869,-40.7366,MG,Minas Gerais,8700,false,714,MATA VERDE,0.0006396624
Materlândia,-18.4699,-43.0579,MG,Minas Gerais,4415,false,715,MATERLANDIA,0.0002939753
Mateus Leme,-19.9794,-44.4318,MG,Minas Gerais,31631,false,716,MATEUS LEME,0.0024895929
Mathias Lobato,-18.59,-41.9166,MG,Minas Gerais,3157,false,717,MATHIAS LOBATO,0.0001924876
Matias Barbosa,-21.869,-43.3135,MG,Minas Gerais,14626,false,718,MATIAS BARBOSA,0.0011177352
Matias Cardoso,-14.8563,-43.9146,MG,Minas Gerais,11360,false,719,MATIAS CARDOSO,0.0008542547
Matipó,-20.2873,-42.3401,MG,Minas Gerais,19098,false,720,MATIPO,0.0014785084
Mato Verde,-15.3944,-42.86,MG,Minas Gerais,12367,false,721,MATO VERDE,0.0009354932
Matozinhos,-19.5543,-44.0868,MG,Minas Gerais,38469,false,722,MATOZINHOS,0.0030412402
Matutina,-19.2179,-45.9664,MG,Minas Gerais,3733,false,723,MATUTINA,0.0002389557
Medeiros,-19.9865,-46.2181,MG,Minas Gerais,3861,false,724,MEDEIROS,0.000249282
Medina,-16.2245,-41.4728,MG,Minas Gerais,20701,false,725,MEDINA,0.0016078285
Mendes Pimentel,-18.6631,-41.4052,MG,Minas Gerais,6446,false,726,MENDES PIMENTEL,0.0004578237
Mercês,-21.1976,-43.3337,MG,Minas Gerais,10775,false,727,MERCES,0.0008070605
Mesquita,-19.224,-42.6079,MG,Minas Gerais,5489,false,728,MESQUITA,0.0003806189
Minas Novas,-17.2156,-42.5884,MG,Minas Gerais,31509,false,729,MINAS NOVAS,0.0024797507
Minduri,-21.6797,-44.6051,MG,Minas Gerais,3891,false,730,MINDURI,0.0002517022
Mirabela,-16.256,-44.1602,MG,Minas Gerais,13651,false,731,MIRABELA,0.0010390783
Miradouro,-20.8899,-42.3458,MG,Minas Gerais,10818,false,732,MIRADOURO,0.0008105295
Miraí,-21.2021,-42.6122,MG,Minas Gerais,15205,false,733,MIRAI,0.0011644454
Miravânia,-14.7348,-44.4092,MG,Minas Gerais,4939,false,734,MIRAVANIA,0.0003362483
Moeda,-20.3399,-44.0509,MG,Minas Gerais,4948,false,735,MOEDA,0.0003369744
Moema,-19.8387,-45.4127,MG,Minas Gerais,7589,false,736,MOEMA,0.0005500338
Monjolos,-18.3245,-44.118,MG,Minas Gerais,2184,false,737,MONJOLOS,0.0001139921
Monsenhor Paulo,-21.7579,-45.5391,MG,Minas Gerais,8764,false,738,MONSENHOR PAULO,0.0006448255
Montalvânia,-14.4197,-44.3719,MG,Minas Gerais,14621,false,739,MONTALVANIA,0.0011173319
Monte Alegre de Minas,-18.869,-48.881,MG,Minas Gerais,21349,false,740,MONTE ALEGRE DE MINAS,0.0016601051
Monte Azul,-15.1514,-42.8718,MG,Minas Gerais,20544,false,741,MONTE AZUL,0.0015951627
Monte Belo,-21.3271,-46.3635,MG,Minas Gerais,13139,false,742,MONTE BELO,0.0009977733
Monte Carmelo,-18.7302,-47.4912,MG,Minas Gerais,48049,false,743,MONTE CARMELO,0.003814095
Monte Formoso,-16.8691,-41.2473,MG,Minas Gerais,4939,false,744,MONTE FORMOSO,0.0003362483
Monte Santo de Minas,-21.1873,-46.9753,MG,Minas Gerais,21504,false,745,MONTE SANTO DE MINAS,0.0016726095
Monte Sião,-22.4335,-46.573,MG,Minas Gerais,24247,false,746,MONTE SIAO,0.0018938977
Montes Claros,-16.7282,-43.8578,MG,Minas Gerais,417478,false,747,MONTES CLAROS,0.0336173292
Montezuma,-15.1702,-42.4941,MG,Minas Gerais,8379,false,748,MONTEZUMA,0.0006137661
Morada Nova de Minas,-18.5998,-45.3584,MG,Minas Gerais,8955,false,749,MORADA NOVA DE MINAS,0.0006602342
Morro da Garça,-18.5356,-44.601,MG,Minas Gerais,2413,false,750,MORRO DA GARCA,0.0001324663
Morro do Pilar,-19.2236,-43.3795,MG,Minas Gerais,3126,false,751,MORRO DO PILAR,0.0001899868
Munhoz,-22.6092,-46.362,MG,Minas Gerais,5960,false,752,MUNHOZ,0.0004186162
Muriaé,-21.13,-42.3693,MG,Minas Gerais,109997,false,753,MURIAE,0.0088116744
Mutum,-19.8121,-41.4407,MG,Minas Gerais,26945,false,754,MUTUM,0.0021115555
Muzambinho,-21.3692,-46.5213,MG,Minas Gerais,20522,false,755,MUZAMBINHO,0.0015933878
Nacip Raydan,-18.4544,-42.2481,MG,Minas Gerais,3221,false,756,NACIP RAYDAN,0.0001976508
Nanuque,-17.8481,-40.3533,MG,Minas Gerais,40583,false,757,NANUQUE,0.0032117846
Naque,-19.2291,-42.3312,MG,Minas Gerais,7104,false,758,NAQUE,0.0005109071
Natalândia,-16.5021,-46.4874,MG,Minas Gerais,3306,false,759,NATALANDIA,0.000204508
Natércia,-22.1158,-45.5123,MG,Minas Gerais,4727,false,760,NATERCIA,0.0003191455
Nazareno,-21.2168,-44.6138,MG,Minas Gerais,8710,false,761,NAZARENO,0.0006404691
Nepomuceno,-21.2324,-45.235,MG,Minas Gerais,26882,false,762,NEPOMUCENO,0.0021064731
Ninheira,-15.3148,-41.7564,MG,Minas Gerais,10355,false,763,NINHEIRA,0.0007731775
Nova Belém,-18.4925,-41.1107,MG,Minas Gerais,3067,false,764,NOVA BELEM,0.000185227
Nova Era,-19.7577,-43.0333,MG,Minas Gerais,17524,false,765,NOVA ERA,0.0013515279
Nova Lima,-19.9758,-43.8509,MG,Minas Gerais,97378,false,766,NOVA LIMA,0.007793652
Nova Módica,-18.4417,-41.4984,MG,Minas Gerais,3548,false,767,NOVA MODICA,0.0002240311
Nova Ponte,-19.1461,-47.6779,MG,Minas Gerais,16046,false,768,NOVA PONTE,0.001232292
Nova Porteirinha,-15.7993,-43.2941,MG,Minas Gerais,7493,false,769,NOVA PORTEIRINHA,0.0005422892
Nova Resende,-21.1286,-46.4157,MG,Minas Gerais,16937,false,770,NOVA RESENDE,0.0013041723
Nova Serrana,-19.8713,-44.9847,MG,Minas Gerais,108241,false,771,NOVA SERRANA,0.0086700112
Nova União,-19.6876,-43.583,MG,Minas Gerais,5739,false,772,NOVA UNIAO,0.0004007873
Novo Cruzeiro,-17.4654,-41.8826,MG,Minas Gerais,31339,false,773,NOVO CRUZEIRO,0.0024660361
Novo Oriente de Minas,-17.4089,-41.2194,MG,Minas Gerais,10800,false,774,NOVO ORIENTE DE MINAS,0.0008090773
Novorizonte,-16.0162,-42.4044,MG,Minas Gerais,5348,false,775,NOVORIZONTE,0.0003692439
Olaria,-21.8598,-43.9356,MG,Minas Gerais,1694,false,776,OLARIA,0.0000744619
Olhos d'Água,-17.3982,-43.5719,MG,Minas Gerais,6243,false,777,OLHOS D'AGUA,0.0004414469
Olímpio Noronha,-22.0685,-45.2657,MG,Minas Gerais,2829,false,778,OLIMPIO NORONHA,0.0001660266
Oliveira,-20.6982,-44.829,MG,Minas Gerais,41987,false,779,OLIVEIRA,0.0033250506
Oliveira Fortes,-21.3401,-43.4499,MG,Minas Gerais,2128,false,780,OLIVEIRA FORTES,0.0001094743
Onça de Pitangui,-19.7276,-44.8058,MG,Minas Gerais,3155,false,781,ONCA DE PITANGUI,0.0001923263
Oratórios,-20.4298,-42.7977,MG,Minas Gerais,4671,false,782,ORATORIOS,0.0003146277
Orizânia,-20.5142,-42.1991,MG,Minas Gerais,8138,false,783,ORIZANIA,0.0005943237
Ouro Branco,-20.5263,-43.6962,MG,Minas Gerais,40220,false,784,OURO BRANCO,0.0031825
Ouro Fino,-22.2779,-46.3716,MG,Minas Gerais,33938,false,785,OURO FINO,0.0026757073
Ouro Preto,-20.3796,-43.512,MG,Minas Gerais,74824,false,786,OURO PRETO,0.0059741355
Ouro Verde de Minas,-18.0719,-41.2734,MG,Minas Gerais,5895,false,787,OURO VERDE DE MINAS,0.0004133725
Padre Carvalho,-16.3646,-42.5088,MG,Minas Gerais,6466,false,788,PADRE CARVALHO,0.0004594372
Padre Paraíso,-17.0758,-41.4821,MG,Minas Gerais,20346,false,789,PADRE PARAISO,0.0015791893
Pai Pedro,-15.5271,-43.07,MG,Minas Gerais,6098,false,790,PAI PEDRO,0.0004297492
Paineiras,-18.8993,-45.5321,MG,Minas Gerais,4440,false,791,PAINEIRAS,0.0002959921
Pains,-20.3705,-45.6627,MG,Minas Gerais,8308,false,792,PAINS,0.0006080383
Paiva,-21.2913,-43.4088,MG,Minas Gerais,1517,false,793,PAIVA,0.0000601826
Palma,-21.3748,-42.3123,MG,Minas Gerais,6606,false,794,PALMA,0.0004707315
Palmópolis,-16.7364,-40.4296,MG,Minas Gerais,5196,false,795,PALMOPOLIS,0.0003569815
Papagaios,-19.4419,-44.7468,MG,Minas Gerais,15922,false,796,PAPAGAIOS,0.0012222885
Pará de Minas,-19.8534,-44.6114,MG,Minas Gerais,95616,false,797,PARA DE MINAS,0.0076515048
Paracatu,-17.2252,-46.8711,MG,Minas Gerais,94539,false,798,PARACATU,0.0075646191
Paraguaçu,-21.5465,-45.7374,MG,Minas Gerais,21693,false,799,PARAGUACU,0.0016878568
Paraisópolis,-22.5539,-45.7803,MG,Minas Gerais,21353,false,800,PARAISOPOLIS,0.0016604278
Paraopeba,-19.2732,-44.4044,MG,Minas Gerais,24854,false,801,PARAOPEBA,0.0019428667
Passa Quatro,-22.3871,-44.9709,MG,Minas Gerais,16439,false,802,PASSA QUATRO,0.0012639968
Passa Tempo,-20.6539,-44.4926,MG,Minas Gerais,8031,false,803,PASSA TEMPO,0.0005856916
Passa-Vinte,-22.2097,-44.2344,MG,Minas Gerais,2024,false,804,PASSA-VINTE,0.0001010842
Passabém,-19.3509,-43.1383,MG,Minas Gerais,1619,false,805,PASSABEM,0.0000684114
Passos,-20.7193,-46.609,MG,Minas Gerais,115970,false,806,PASSOS,0.0092935389
Patis,-16.0773,-44.0787,MG,Minas Gerais,6031,false,807,PATIS,0.0004243441
Patos de Minas,-18.5699,-46.5013,MG,Minas Gerais,154641,false,808,PATOS DE MINAS,0.0124132747
Patrocínio,-18.9379,-46.9934,MG,Minas Gerais,92116,false,809,PATROCINIO,0.0073691465
Patrocínio do Muriaé,-21.1544,-42.2125,MG,Minas Gerais,5744,false,810,PATROCINIO DO MURIAE,0.0004011907
Paula Cândido,-20.8754,-42.9752,MG,Minas Gerais,9597,false,811,PAULA CANDIDO,0.0007120268
Paulistas,-18.4276,-42.8628,MG,Minas Gerais,4794,false,812,PAULISTAS,0.0003245506
Pavão,-17.4267,-41.0035,MG,Minas Gerais,8390,false,813,PAVAO,0.0006146535
Peçanha,-18.5441,-42.5583,MG,Minas Gerais,17534,false,814,PECANHA,0.0013523346
Pedra Azul,-16.0086,-41.2909,MG,Minas Gerais,24333,false,815,PEDRA AZUL,0.0019008356
Pedra Bonita,-20.5219,-42.3304,MG,Minas Gerais,7157,false,816,PEDRA BONITA,0.0005151828
Pedra do Anta,-20.5968,-42.7123,MG,Minas Gerais,2960,false,817,PEDRA DO ANTA,0.0001765949
Pedra do Indaiá,-20.2563,-45.2107,MG,Minas Gerais,3977,false,818,PEDRA DO INDAIA,0.0002586401
Pedra Dourada,-20.8266,-42.1515,MG,Minas Gerais,2559,false,819,PEDRA DOURADA,0.0001442447
Pedralva,-22.2386,-45.4654,MG,Minas Gerais,11098,false,820,PEDRALVA,0.0008331181
Pedras de Maria da Cruz,-15.6032,-44.391,MG,Minas Gerais,12313,false,821,PEDRAS DE MARIA DA CRUZ,0.0009311368
Pedrinópolis,-19.2241,-47.4579,MG,Minas Gerais,3651,false,822,PEDRINOPOLIS,0.0002323405
Pedro Leopoldo,-19.6308,-44.0383,MG,Minas Gerais,65149,false,823,PEDRO LEOPOLDO,0.0051936167
Pedro Teixeira,-21.7076,-43.743,MG,Minas Gerais,1804,false,824,PEDRO TEIXEIRA,0.000083336
Pequeri,-21.8341,-43.1145,MG,Minas Gerais,3340,false,825,PEQUERI,0.0002072509
Pequi,-19.6284,-44.6604,MG,Minas Gerais,4457,false,826,PEQUI,0.0002973636
Perdigão,-19.9411,-45.078,MG,Minas Gerais,11994,false,827,PERDIGAO,0.0009054018
Perdizes,-19.3434,-47.2963,MG,Minas Gerais,16469,false,828,PERDIZES,0.001266417
Perdões,-21.0932,-45.0896,MG,Minas Gerais,21577,false,829,PERDOES,0.0016784987
Periquito,-19.1573,-42.2333,MG,Minas Gerais,6738,false,830,PERIQUITO,0.0004813805
Pescador,-18.357,-41.6006,MG,Minas Gerais,4261,false,831,PESCADOR,0.0002815515
Piau,-21.5096,-43.313,MG,Minas Gerais,2719,false,832,PIAU,0.0001571525
Piedade de Caratinga,-19.7593,-42.0756,MG,Minas Gerais,8832,false,833,PIEDADE DE CARATINGA,0.0006503113
Piedade de Ponte Nova,-20.2438,-42.7379,MG,Minas Gerais,4141,false,834,PIEDADE DE PONTE NOVA,0.0002718706
Piedade do Rio Grande,-21.469,-44.1938,MG,Minas Gerais,4436,false,835,PIEDADE DO RIO GRANDE,0.0002956694
Piedade dos Gerais,-20.4715,-44.2243,MG,Minas Gerais,5034,false,836,PIEDADE DOS GERAIS,0.0003439123
Pimenta,-20.4827,-45.8049,MG,Minas Gerais,8715,false,837,PIMENTA,0.0006408725
Pingo-d'Água,-19.7287,-42.4095,MG,Minas Gerais,5029,false,838,PINGO-D'AGUA,0.000343509
Pintópolis,-16.0572,-45.1402,MG,Minas Gerais,7540,false,839,PINTOPOLIS,0.0005460808
Piracema,-20.5089,-44.4783,MG,Minas Gerais,6386,false,840,PIRACEMA,0.0004529833
Pirajuba,-19.9092,-48.7027,MG,Minas Gerais,6491,false,841,PIRAJUBA,0.000461454
Piranga,-20.6834,-43.2967,MG,Minas Gerais,17641,false,842,PIRANGA,0.0013609667
Piranguçu,-22.5249,-45.4945,MG,Minas Gerais,5504,false,843,PIRANGUCU,0.000381829
Piranguinho,-22.395,-45.5324,MG,Minas Gerais,8683,false,844,PIRANGUINHO,0.000638291
Pirapetinga,-21.6554,-42.3434,MG,Minas Gerais,10791,false,845,PIRAPETINGA,0.0008083513
Pirapora,-17.3392,-44.934,MG,Minas Gerais,56845,false,846,PIRAPORA,0.0045237016
Piraúba,-21.2825,-43.0172,MG,Minas Gerais,10732,false,847,PIRAUBA,0.0008035915
Pitangui,-19.6741,-44.8964,MG,Minas Gerais,28433,false,848,PITANGUI,0.0022315981
Piumhi,-20.4762,-45.9589,MG,Minas Gerais,35137,false,849,PIUMHI,0.0027724352
Planura,-20.1376,-48.7,MG,Minas Gerais,12445,false,850,PLANURA,0.0009417857
Poço Fundo,-21.78,-45.9658,MG,Minas Gerais,16900,false,851,POCO FUNDO,0.0013011874
Poços de Caldas,-21.78,-46.5692,MG,Minas Gerais,169838,false,852,POCOS DE CALDAS,0.0136392741
Pocrane,-19.6208,-41.6334,MG,Minas Gerais,8288,false,853,POCRANE,0.0006064248
Pompéu,-19.2257,-45.0141,MG,Minas Gerais,32248,false,854,POMPEU,0.0025393686
Ponte Nova,-20.4111,-42.8978,MG,Minas Gerais,60003,false,855,PONTE NOVA,0.0047784694
Ponto Chique,-16.6282,-45.0588,MG,Minas Gerais,4305,false,856,PONTO CHIQUE,0.0002851011
Ponto dos Volantes,-16.7473,-41.5025,MG,Minas Gerais,12235,false,857,PONTO DOS VOLANTES,0.0009248442
Porteirinha,-15.7404,-43.0281,MG,Minas Gerais,37823,false,858,PORTEIRINHA,0.0029891249
Porto Firme,-20.6642,-43.0834,MG,Minas Gerais,11414,false,859,PORTO FIRME,0.0008586111
Poté,-17.8077,-41.786,MG,Minas Gerais,16675,false,860,POTE,0.0012830358
Pouso Alegre,-22.2266,-45.9389,MG,Minas Gerais,154293,false,861,POUSO ALEGRE,0.0123852002
Pouso Alto,-22.1964,-44.9748,MG,Minas Gerais,5862,false,862,POUSO ALTO,0.0004107102
Prados,-21.0597,-44.0778,MG,Minas Gerais,9128,false,863,PRADOS,0.0006741908
Prata,-19.3086,-48.9276,MG,Minas Gerais,28173,false,864,PRATA,0.0022106229
Pratápolis,-20.7411,-46.8624,MG,Minas Gerais,8530,false,865,PRATAPOLIS,0.0006259479
Pratinha,-19.739,-46.3755,MG,Minas Gerais,3658,false,866,PRATINHA,0.0002329052
Presidente Bernardes,-20.7656,-43.1895,MG,Minas Gerais,5315,false,867,PRESIDENTE BERNARDES,0.0003665817
Presidente Juscelino,-18.6401,-44.06,MG,Minas Gerais,3572,false,868,PRESIDENTE JUSCELINO,0.0002259673
Presidente Kubitschek,-18.6193,-43.5628,MG,Minas Gerais,3000,false,869,PRESIDENTE KUBITSCHEK,0.0001798219
Presidente Olegário,-18.4096,-46.4165,MG,Minas Gerais,19680,false,870,PRESIDENTE OLEGARIO,0.0015254605
Prudente de Morais,-19.4742,-44.1591,MG,Minas Gerais,10931,false,871,PRUDENTE DE MORAIS,0.0008196456
Quartel Geral,-19.2703,-45.5569,MG,Minas Gerais,3603,false,872,QUARTEL GERAL,0.0002284681
Queluzito,-20.7416,-43.8851,MG,Minas Gerais,1948,false,873,QUELUZITO,0.000094953
Raposos,-19.9636,-43.8079,MG,Minas Gerais,16501,false,874,RAPOSOS,0.0012689986
Raul Soares,-20.1061,-42.4502,MG,Minas Gerais,23663,false,875,RAUL SOARES,0.0018467842
Recreio,-21.5289,-42.4676,MG,Minas Gerais,10522,false,876,RECREIO,0.00078665
Reduto,-20.2401,-41.9848,MG,Minas Gerais,7247,false,877,REDUTO,0.0005224434
Resende Costa,-20.9171,-44.2407,MG,Minas Gerais,11578,false,878,RESENDE COSTA,0.0008718416
Resplendor,-19.3194,-41.2462,MG,Minas Gerais,17396,false,879,RESPLENDOR,0.0013412016
Ressaquinha,-21.0642,-43.7598,MG,Minas Gerais,4826,false,880,RESSAQUINHA,0.0003271322
Riachinho,-16.2258,-45.9888,MG,Minas Gerais,8132,false,881,RIACHINHO,0.0005938397
Riacho dos Machados,-16.0091,-43.0488,MG,Minas Gerais,9471,false,882,RIACHO DOS MACHADOS,0.0007018619
Ribeirão das Neves,-19.7621,-44.0844,MG,Minas Gerais,341415,false,883,RIBEIRAO DAS NEVES,0.0274810394
Ribeirão Vermelho,-21.1879,-45.0637,MG,Minas Gerais,4061,false,884,RIBEIRAO VERMELHO,0.0002654167
Rio Acima,-20.0876,-43.7878,MG,Minas Gerais,10524,false,885,RIO ACIMA,0.0007868114
Rio Casca,-20.2285,-42.6462,MG,Minas Gerais,13384,false,886,RIO CASCA,0.0010175384
Rio do Prado,-16.6056,-40.5714,MG,Minas Gerais,5117,false,887,RIO DO PRADO,0.0003506083
Rio Doce,-20.2412,-42.8995,MG,Minas Gerais,2630,false,888,RIO DOCE,0.0001499726
Rio Espera,-20.855,-43.4721,MG,Minas Gerais,5332,false,889,RIO ESPERA,0.0003679531
Rio Manso,-20.2666,-44.3069,MG,Minas Gerais,5924,false,890,RIO MANSO,0.000415712
Rio Novo,-21.4649,-43.1168,MG,Minas Gerais,8964,false,891,RIO NOVO,0.0006609603
Rio Paranaíba,-19.1861,-46.2455,MG,Minas Gerais,12356,false,892,RIO PARANAIBA,0.0009346058
Rio Pardo de Minas,-15.616,-42.5405,MG,Minas Gerais,31171,false,893,RIO PARDO DE MINAS,0.0024524829
Rio Piracicaba,-19.9284,-43.1829,MG,Minas Gerais,14325,false,894,RIO PIRACICABA,0.0010934524
Rio Pomba,-21.2712,-43.1696,MG,Minas Gerais,18007,false,895,RIO POMBA,0.0013904933
Rio Preto,-22.0861,-43.8293,MG,Minas Gerais,5493,false,896,RIO PRETO,0.0003809416
Rio Vermelho,-18.2922,-43.0018,MG,Minas Gerais,12635,false,897,RIO VERMELHO,0.0009571137
Ritápolis,-21.0276,-44.3204,MG,Minas Gerais,4521,false,898,RITAPOLIS,0.0003025267
Rochedo de Minas,-21.6284,-43.0165,MG,Minas Gerais,2335,false,899,ROCHEDO DE MINAS,0.0001261738
Rodeiro,-21.2035,-42.8586,MG,Minas Gerais,8333,false,900,RODEIRO,0.0006100551
Romaria,-18.8838,-47.5782,MG,Minas Gerais,3507,false,901,ROMARIA,0.0002207235
Rosário da Limeira,-20.9812,-42.5112,MG,Minas Gerais,4648,false,902,ROSARIO DA LIMEIRA,0.0003127722
Rubelita,-16.4053,-42.261,MG,Minas Gerais,5609,false,903,RUBELITA,0.0003902998
Rubim,-16.3775,-40.5397,MG,Minas Gerais,10269,false,904,RUBIM,0.0007662396
Sabará,-19.884,-43.8263,MG,Minas Gerais,137877,false,905,SABARA,0.0110608594
Sabinópolis,-18.6653,-43.0752,MG,Minas Gerais,15364,false,906,SABINOPOLIS,0.0011772725
Sacramento,-19.8622,-47.4508,MG,Minas Gerais,26556,false,907,SACRAMENTO,0.0020801734
Salinas,-16.1753,-42.2964,MG,Minas Gerais,41864,false,908,SALINAS,0.0033151277
Salto da Divisa,-16.0063,-39.9391,MG,Minas Gerais,7014,false,909,SALTO DA DIVISA,0.0005036464
Santa Bárbara,-19.9604,-43.4101,MG,Minas Gerais,31873,false,910,SANTA BARBARA,0.0025091159
Santa Bárbara do Leste,-19.9753,-42.1457,MG,Minas Gerais,8212,false,911,SANTA BARBARA DO LESTE,0.0006002936
Santa Bárbara do Monte Verde,-21.9592,-43.7027,MG,Minas Gerais,3212,false,912,SANTA BARBARA DO MONTE VERDE,0.0001969247
Santa Bárbara do Tugúrio,-21.2431,-43.5607,MG,Minas Gerais,4385,false,913,SANTA BARBARA DO TUGURIO,0.000291555
Santa Cruz de Minas,-21.1241,-44.2202,MG,Minas Gerais,8723,false,914,SANTA CRUZ DE MINAS,0.0006415179
Santa Cruz de Salinas,-16.0967,-41.7418,MG,Minas Gerais,4074,false,915,SANTA CRUZ DE SALINAS,0.0002664655
Santa Cruz do Escalvado,-20.2372,-42.8169,MG,Minas Gerais,4693,false,916,SANTA CRUZ DO ESCALVADO,0.0003164026
Santa Efigênia de Minas,-18.8235,-42.4388,MG,Minas Gerais,4354,false,917,SANTA EFIGENIA DE MINAS,0.0002890542
Santa Fé de Minas,-16.6859,-45.4102,MG,Minas Gerais,3806,false,918,SANTA FE DE MINAS,0.0002448449
Santa Helena de Minas,-16.9707,-40.6727,MG,Minas Gerais,6406,false,919,SANTA HELENA DE MINAS,0.0004545968
Santa Juliana,-19.3108,-47.5322,MG,Minas Gerais,14497,false,920,SANTA JULIANA,0.0011073283
Santa Luzia,-19.7548,-43.8497,MG,Minas Gerais,221705,false,921,SANTA LUZIA,0.0178235811
Santa Margarida,-20.3839,-42.2519,MG,Minas Gerais,16393,false,922,SANTA MARGARIDA,0.0012602858
Santa Maria de Itabira,-19.4431,-43.1064,MG,Minas Gerais,10867,false,923,SANTA MARIA DE ITABIRA,0.0008144825
Santa Maria do Salto,-16.2479,-40.1512,MG,Minas Gerais,5203,false,924,SANTA MARIA DO SALTO,0.0003575462
Santa Maria do Suaçuí,-18.1896,-42.4139,MG,Minas Gerais,14607,false,925,SANTA MARIA DO SUACUI,0.0011162024
Santa Rita de Caldas,-22.0292,-46.3385,MG,Minas Gerais,8900,false,926,SANTA RITA DE CALDAS,0.0006557972
Santa Rita de Ibitipoca,-21.5658,-43.9163,MG,Minas Gerais,3380,false,927,SANTA RITA DE IBITIPOCA,0.0002104779
Santa Rita de Jacutinga,-22.1474,-44.0977,MG,Minas Gerais,4843,false,928,SANTA RITA DE JACUTINGA,0.0003285036
Santa Rita de Minas,-19.876,-42.1363,MG,Minas Gerais,7322,false,929,SANTA RITA DE MINAS,0.0005284939
Santa Rita do Itueto,-19.3576,-41.3821,MG,Minas Gerais,5426,false,930,SANTA RITA DO ITUETO,0.0003755365
Santa Rita do Sapucaí,-22.2461,-45.7034,MG,Minas Gerais,44226,false,931,SANTA RITA DO SAPUCAI,0.0035056792
Santa Rosa da Serra,-19.5186,-45.9611,MG,Minas Gerais,3364,false,932,SANTA ROSA DA SERRA,0.0002091871
Santa Vitória,-18.8414,-50.1208,MG,Minas Gerais,19997,false,933,SANTA VITORIA,0.0015510341
Santana da Vargem,-21.2449,-45.5005,MG,Minas Gerais,7047,false,934,SANTANA DA VARGEM,0.0005063086
Santana de Cataguases,-21.2893,-42.5524,MG,Minas Gerais,3909,false,935,SANTANA DE CATAGUASES,0.0002531543
Santana de Pirapama,-18.9962,-44.0409,MG,Minas Gerais,7538,false,936,SANTANA DE PIRAPAMA,0.0005459195
Santana do Deserto,-21.9512,-43.1583,MG,Minas Gerais,3985,false,937,SANTANA DO DESERTO,0.0002592855
Santana do Garambéu,-21.5983,-44.105,MG,Minas Gerais,2494,false,938,SANTANA DO GARAMBEU,0.0001390009
Santana do Jacaré,-20.9007,-45.1285,MG,Minas Gerais,4847,false,939,SANTANA DO JACARE,0.0003288263
Santana do Manhuaçu,-20.1031,-41.9278,MG,Minas Gerais,8660,false,940,SANTANA DO MANHUACU,0.0006364355
Santana do Paraíso,-19.3661,-42.5446,MG,Minas Gerais,36048,false,941,SANTANA DO PARAISO,0.002845929
Santana do Riacho,-19.1662,-43.722,MG,Minas Gerais,4334,false,942,SANTANA DO RIACHO,0.0002874407
Santana dos Montes,-20.7868,-43.6949,MG,Minas Gerais,3753,false,943,SANTANA DOS MONTES,0.0002405692
Santo Antônio do Amparo,-20.943,-44.9176,MG,Minas Gerais,18697,false,944,SANTO ANTONIO DO AMPARO,0.0014461582
Santo Antônio do Aventureiro,-21.7606,-42.8115,MG,Minas Gerais,3602,false,945,SANTO ANTONIO DO AVENTUREIRO,0.0002283875
Santo Antônio do Grama,-20.3185,-42.6047,MG,Minas Gerais,3861,false,946,SANTO ANTONIO DO GRAMA,0.000249282
Santo Antônio do Itambé,-18.4609,-43.3006,MG,Minas Gerais,3763,false,947,SANTO ANTONIO DO ITAMBE,0.000241376
Santo Antônio do Jacinto,-16.5332,-40.1817,MG,Minas Gerais,11570,false,948,SANTO ANTONIO DO JACINTO,0.0008711962
Santo Antônio do Monte,-20.085,-45.2947,MG,Minas Gerais,28603,false,949,SANTO ANTONIO DO MONTE,0.0022453127
Santo Antônio do Retiro,-15.3393,-42.6171,MG,Minas Gerais,7316,false,950,SANTO ANTONIO DO RETIRO,0.0005280099
Santo Antônio do Rio Abaixo,-19.2374,-43.2604,MG,Minas Gerais,1756,false,951,SANTO ANTONIO DO RIO ABAIXO,0.0000794637
Santo Hipólito,-18.2968,-44.2229,MG,Minas Gerais,3044,false,952,SANTO HIPOLITO,0.0001833715
Santos Dumont,-21.4634,-43.5499,MG,Minas Gerais,46357,false,953,SANTOS DUMONT,0.003677595
São Bento Abade,-21.5839,-45.0699,MG,Minas Gerais,5411,false,954,SAO BENTO ABADE,0.0003743263
São Brás do Suaçuí,-20.6242,-43.9515,MG,Minas Gerais,3770,false,955,SAO BRAS DO SUACUI,0.0002419407
São Domingos das Dores,-19.5246,-42.0106,MG,Minas Gerais,5672,false,956,SAO DOMINGOS DAS DORES,0.0003953822
São Domingos do Prata,-19.8678,-42.971,MG,Minas Gerais,17296,false,957,SAO DOMINGOS DO PRATA,0.0013331342
São Félix de Minas,-18.5959,-41.4889,MG,Minas Gerais,3354,false,958,SAO FELIX DE MINAS,0.0002083804
São Francisco,-15.9514,-44.8593,MG,Minas Gerais,56625,false,959,SAO FRANCISCO,0.0045059534
São Francisco de Paula,-20.7036,-44.9838,MG,Minas Gerais,6512,false,960,SAO FRANCISCO DE PAULA,0.0004631482
São Francisco de Sales,-19.8611,-49.7727,MG,Minas Gerais,6309,false,961,SAO FRANCISCO DE SALES,0.0004467714
São Francisco do Glória,-20.7923,-42.2673,MG,Minas Gerais,4758,false,962,SAO FRANCISCO DO GLORIA,0.0003216464
São Geraldo,-20.9252,-42.8364,MG,Minas Gerais,12751,false,963,SAO GERALDO,0.0009664719
São Geraldo da Piedade,-18.8411,-42.2867,MG,Minas Gerais,3860,false,964,SAO GERALDO DA PIEDADE,0.0002492013
São Geraldo do Baixio,-18.9097,-41.363,MG,Minas Gerais,4104,false,965,SAO GERALDO DO BAIXIO,0.0002688857
São Gonçalo do Abaeté,-18.3315,-45.8265,MG,Minas Gerais,8527,false,966,SAO GONCALO DO ABAETE,0.0006257058
São Gonçalo do Pará,-19.9822,-44.8593,MG,Minas Gerais,12776,false,967,SAO GONCALO DO PARA,0.0009684887
São Gonçalo do Rio Abaixo,-19.8221,-43.366,MG,Minas Gerais,11114,false,968,SAO GONCALO DO RIO ABAIXO,0.0008344089
São Gonçalo do Rio Preto,-18.0025,-43.3854,MG,Minas Gerais,3178,false,969,SAO GONCALO DO RIO PRETO,0.0001941818
São Gonçalo do Sapucaí,-21.8932,-45.5893,MG,Minas Gerais,25670,false,970,SAO GONCALO DO SAPUCAI,0.0020086965
São Gotardo,-19.3087,-46.0465,MG,Minas Gerais,36084,false,971,SAO GOTARDO,0.0028488332
São João Batista do Glória,-20.635,-46.508,MG,Minas Gerais,7541,false,972,SAO JOAO BATISTA DO GLORIA,0.0005461615
São João da Lagoa,-16.8455,-44.3507,MG,Minas Gerais,4949,false,973,SAO JOAO DA LAGOA,0.0003370551
São João da Mata,-21.928,-45.9297,MG,Minas Gerais,2743,false,974,SAO JOAO DA MATA,0.0001590887
São João da Ponte,-15.9271,-44.0096,MG,Minas Gerais,25033,false,975,SAO JOAO DA PONTE,0.0019573073
São João das Missões,-14.8859,-44.0922,MG,Minas Gerais,13232,false,976,SAO JOAO DAS MISSOES,0.001005276
São João del Rei,-21.1311,-44.2526,MG,Minas Gerais,90897,false,977,SAO JOAO DEL REI,0.0072708052
São João do Manhuaçu,-20.3933,-42.1533,MG,Minas Gerais,11785,false,978,SAO JOAO DO MANHUACU,0.000888541
São João do Manteninha,-18.723,-41.1628,MG,Minas Gerais,5975,false,979,SAO JOAO DO MANTENINHA,0.0004198264
São João do Oriente,-19.3384,-42.1575,MG,Minas Gerais,7393,false,980,SAO JOAO DO ORIENTE,0.0005342218
São João do Pacuí,-16.5373,-44.5134,MG,Minas Gerais,4476,false,981,SAO JOAO DO PACUI,0.0002988964
São João do Paraíso,-15.3168,-42.0213,MG,Minas Gerais,23797,false,982,SAO JOAO DO PARAISO,0.0018575945
São João Evangelista,-18.548,-42.7655,MG,Minas Gerais,15761,false,983,SAO JOAO EVANGELISTA,0.0012093
São João Nepomuceno,-21.5381,-43.0069,MG,Minas Gerais,26530,false,984,SAO JOAO NEPOMUCENO,0.0020780759
São Joaquim de Bicas,-20.048,-44.2749,MG,Minas Gerais,32696,false,985,SAO JOAQUIM DE BICAS,0.0025755105
São José da Barra,-20.7178,-46.313,MG,Minas Gerais,7532,false,986,SAO JOSE DA BARRA,0.0005454354
São José da Lapa,-19.6971,-43.9586,MG,Minas Gerais,24490,false,987,SAO JOSE DA LAPA,0.0019135014
São José da Safira,-18.3243,-42.1431,MG,Minas Gerais,4291,false,988,SAO JOSE DA SAFIRA,0.0002839717
São José da Varginha,-19.7006,-44.556,MG,Minas Gerais,5151,false,989,SAO JOSE DA VARGINHA,0.0003533512
São José do Alegre,-22.3243,-45.5258,MG,Minas Gerais,4222,false,990,SAO JOSE DO ALEGRE,0.0002784052
São José do Divino,-18.4793,-41.3907,MG,Minas Gerais,3851,false,991,SAO JOSE DO DIVINO,0.0002484752
São José do Goiabal,-19.9214,-42.7035,MG,Minas Gerais,5356,false,992,SAO JOSE DO GOIABAL,0.0003698893
São José do Jacuri,-18.281,-42.6729,MG,Minas Gerais,6409,false,993,SAO JOSE DO JACURI,0.0004548388
São José do Mantimento,-20.0058,-41.7486,MG,Minas Gerais,2821,false,994,SAO JOSE DO MANTIMENTO,0.0001653813
São Lourenço,-22.1166,-45.0506,MG,Minas Gerais,46539,false,995,SAO LOURENCO,0.0036922776
São Miguel do Anta,-20.7067,-42.7174,MG,Minas Gerais,6949,false,996,SAO MIGUEL DO ANTA,0.0004984026
São Pedro da União,-21.131,-46.6123,MG,Minas Gerais,4563,false,997,SAO PEDRO DA UNIAO,0.000305915
São Pedro do Suaçuí,-18.3609,-42.5981,MG,Minas Gerais,5160,false,998,SAO PEDRO DO SUACUI,0.0003540772
São Pedro dos Ferros,-20.1732,-42.5251,MG,Minas Gerais,7634,false,999,SAO PEDRO DOS FERROS,0.0005536642
São Romão,-16.3641,-45.0749,MG,Minas Gerais,12713,false,1000,SAO ROMAO,0.0009634063
São Roque de Minas,-20.249,-46.3639,MG,Minas Gerais,7100,false,1001,SAO ROQUE DE MINAS,0.0005105844
São Sebastião da Bela Vista,-22.1583,-45.7546,MG,Minas Gerais,5598,false,1002,SAO SEBASTIAO DA BELA VISTA,0.0003894123
São Sebastião da Vargem Alegre,-19.7477,-43.3679,MG,Minas Gerais,3039,false,1003,SAO SEBASTIAO DA VARGEM ALEGRE,0.0001829681
São Sebastião do Anta,-19.5064,-41.985,MG,Minas Gerais,6697,false,1004,SAO SEBASTIAO DO ANTA,0.0004780728
São Sebastião do Maranhão,-18.0873,-42.5659,MG,Minas Gerais,9884,false,1005,SAO SEBASTIAO DO MARANHAO,0.0007351802
São Sebastião do Oeste,-20.2758,-45.0063,MG,Minas Gerais,6948,false,1006,SAO SEBASTIAO DO OESTE,0.0004983219
São Sebastião do Paraíso,-20.9167,-46.9837,MG,Minas Gerais,71915,false,1007,SAO SEBASTIAO DO PARAISO,0.0057394555
São Sebastião do Rio Preto,-19.2959,-43.1757,MG,Minas Gerais,1478,false,1008,SAO SEBASTIAO DO RIO PRETO,0.0000570364
São Sebastião do Rio Verde,-22.2183,-44.9761,MG,Minas Gerais,2259,false,1009,SAO SEBASTIAO DO RIO VERDE,0.0001200426
São Thomé das Letras,-21.7218,-44.9849,MG,Minas Gerais,7151,false,1010,SAO THOME DAS LETRAS,0.0005146987
São Tiago,-20.9075,-44.5098,MG,Minas Gerais,10979,false,1011,SAO TIAGO,0.000823518
São Tomás de Aquino,-20.7791,-47.0962,MG,Minas Gerais,6980,false,1012,SAO TOMAS DE AQUINO,0.0005009035
São Vicente de Minas,-21.7042,-44.4431,MG,Minas Gerais,7876,false,1013,SAO VICENTE DE MINAS,0.0005731872
Sapucaí-Mirim,-22.7409,-45.738,MG,Minas Gerais,7045,false,1014,SAPUCAI-MIRIM,0.0005061473
Sardoá,-18.7828,-42.3629,MG,Minas Gerais,6421,false,1015,SARDOA,0.0004558069
Sarzedo,-20.0367,-44.1446,MG,Minas Gerais,34050,false,1016,SARZEDO,0.0026847428
Sem-Peixe,-20.1008,-42.8483,MG,Minas Gerais,2579,false,1017,SEM-PEIXE,0.0001458582
Senador Amaral,-22.5869,-46.1763,MG,Minas Gerais,5365,false,1018,SENADOR AMARAL,0.0003706153
Senador Cortes,-21.7986,-42.9424,MG,Minas Gerais,2001,false,1019,SENADOR CORTES,0.0000992288
Senador Firmino,-20.9158,-43.0904,MG,Minas Gerais,7902,false,1020,SENADOR FIRMINO,0.0005752847
Senador José Bento,-22.1633,-46.1792,MG,Minas Gerais,1422,false,1021,SENADOR JOSE BENTO,0.0000525186
Senador Modestino Gonçalves,-17.9465,-43.2172,MG,Minas Gerais,4056,false,1022,SENADOR MODESTINO GONCALVES,0.0002650134
Senhora de Oliveira,-20.7972,-43.3394,MG,Minas Gerais,5786,false,1023,SENHORA DE OLIVEIRA,0.000404579
Senhora do Porto,-18.8909,-43.0799,MG,Minas Gerais,3516,false,1024,SENHORA DO PORTO,0.0002214495
Senhora dos Remédios,-21.0351,-43.5812,MG,Minas Gerais,10474,false,1025,SENHORA DOS REMEDIOS,0.0007827777
Sericita,-20.4748,-42.4828,MG,Minas Gerais,7340,false,1026,SERICITA,0.0005299461
Seritinga,-21.9134,-44.518,MG,Minas Gerais,1857,false,1027,SERITINGA,0.0000876117
Serra Azul de Minas,-18.3602,-43.1675,MG,Minas Gerais,4292,false,1028,SERRA AZUL DE MINAS,0.0002840524
Serra da Saudade,-19.4447,-45.795,MG,Minas Gerais,771,false,1029,SERRA DA SAUDADE,0
Serra do Salitre,-19.1083,-46.6961,MG,Minas Gerais,11750,false,1030,SERRA DO SALITRE,0.0008857174
Serra dos Aimorés,-17.7872,-40.2453,MG,Minas Gerais,8725,false,1031,SERRA DOS AIMORES,0.0006416793
Serrania,-21.5441,-46.0417,MG,Minas Gerais,7667,false,1032,SERRANIA,0.0005563264
Serranópolis de Minas,-15.8176,-42.8732,MG,Minas Gerais,4836,false,1033,SERRANOPOLIS DE MINAS,0.0003279389
Serranos,-21.8857,-44.5125,MG,Minas Gerais,1949,false,1034,SERRANOS,0.0000950337
Serro,-18.5991,-43.3744,MG,Minas Gerais,20915,false,1035,SERRO,0.0016250926
Sete Lagoas,-19.4569,-44.2413,MG,Minas Gerais,243950,false,1036,SETE LAGOAS,0.0196181694
Setubinha,-17.6002,-42.1587,MG,Minas Gerais,12493,false,1037,SETUBINHA,0.0009456581
Silveirânia,-21.1615,-43.2128,MG,Minas Gerais,2267,false,1038,SILVEIRANIA,0.000120688
Silvianópolis,-22.0274,-45.8385,MG,Minas Gerais,6258,false,1039,SILVIANOPOLIS,0.000442657
Simão Pereira,-21.964,-43.3088,MG,Minas Gerais,2621,false,1040,SIMAO PEREIRA,0.0001492465
Simonésia,-20.1341,-42.0091,MG,Minas Gerais,19834,false,1041,SIMONESIA,0.0015378843
Sobrália,-19.2345,-42.0998,MG,Minas Gerais,5476,false,1042,SOBRALIA,0.0003795701
Soledade de Minas,-22.0554,-45.0464,MG,Minas Gerais,6226,false,1043,SOLEDADE DE MINAS,0.0004400755
Tabuleiro,-21.3632,-43.2381,MG,Minas Gerais,3669,false,1044,TABULEIRO,0.0002337926
Taiobeiras,-15.8106,-42.2259,MG,Minas Gerais,34653,false,1045,TAIOBEIRAS,0.002733389
Taparuba,-19.7621,-41.608,MG,Minas Gerais,3093,false,1046,TAPARUBA,0.0001873245
Tapira,-19.9166,-46.8264,MG,Minas Gerais,4890,false,1047,TAPIRA,0.0003322953
Tapiraí,-19.8936,-46.0221,MG,Minas Gerais,1869,false,1048,TAPIRAI,0.0000885798
Taquaraçu de Minas,-19.6652,-43.6922,MG,Minas Gerais,4120,false,1049,TAQUARACU DE MINAS,0.0002701765
Tarumirim,-19.2835,-42.0097,MG,Minas Gerais,14280,false,1050,TARUMIRIM,0.0010898221
Teixeiras,-20.6561,-42.8564,MG,Minas Gerais,11680,false,1051,TEIXEIRAS,0.0008800703
Teófilo Otoni,-17.8595,-41.5087,MG,Minas Gerais,141269,false,1052,TEOFILO OTONI,0.0113345049
Timóteo,-19.5811,-42.6471,MG,Minas Gerais,91268,false,1053,TIMOTEO,0.0073007352
Tiradentes,-21.1102,-44.1744,MG,Minas Gerais,8160,false,1054,TIRADENTES,0.0005960986
Tiros,-19.0037,-45.9626,MG,Minas Gerais,6369,false,1055,TIROS,0.0004516118
Tocantins,-21.1774,-43.0127,MG,Minas Gerais,16769,false,1056,TOCANTINS,0.0012906191
Tocos do Moji,-22.3698,-46.0971,MG,Minas Gerais,4117,false,1057,TOCOS DO MOJI,0.0002699345
Toledo,-22.7421,-46.3728,MG,Minas Gerais,6336,false,1058,TOLEDO,0.0004489496
Tombos,-20.9086,-42.0228,MG,Minas Gerais,7683,false,1059,TOMBOS,0.0005576172
Três Corações,-21.6921,-45.2511,MG,Minas Gerais,80561,false,1060,TRES CORACOES,0.006436961
Três Marias,-18.2048,-45.2473,MG,Minas Gerais,33062,false,1061,TRES MARIAS,0.0026050371
Três Pontas,-21.3694,-45.5109,MG,Minas Gerais,57127,false,1062,TRES PONTAS,0.0045464516
Tumiritinga,-18.9844,-41.6527,MG,Minas Gerais,6797,false,1063,TUMIRITINGA,0.0004861402
Tupaciguara,-18.5866,-48.6985,MG,Minas Gerais,25466,false,1064,TUPACIGUARA,0.001992239
Turmalina,-17.2828,-42.7285,MG,Minas Gerais,20280,false,1065,TURMALINA,0.0015738648
Turvolândia,-21.8733,-45.7859,MG,Minas Gerais,5099,false,1066,TURVOLANDIA,0.0003491561
Ubá,-21.1204,-42.9359,MG,Minas Gerais,117995,false,1067,UBA,0.0094569033
Ubaí,-16.2885,-44.7783,MG,Minas Gerais,12661,false,1068,UBAI,0.0009592113
Ubaporanga,-19.6351,-42.1059,MG,Minas Gerais,12514,false,1069,UBAPORANGA,0.0009473522
Uberaba,-19.7472,-47.9381,MG,Minas Gerais,340277,false,1070,UBERABA,0.0273892327
Uberlândia,-18.9141,-48.2749,MG,Minas Gerais,706597,false,1071,UBERLANDIA,0.0569416521
Umburatiba,-17.2548,-40.5779,MG,Minas Gerais,2582,false,1072,UMBURATIBA,0.0001461002
Unaí,-16.3592,-46.9022,MG,Minas Gerais,85461,false,1073,UNAI,0.0068322625
União de Minas,-19.5299,-50.338,MG,Minas Gerais,4265,false,1074,UNIAO DE MINAS,0.0002818742
Uruana de Minas,-16.0634,-46.2443,MG,Minas Gerais,3256,false,1075,URUANA DE MINAS,0.0002004743
Urucânia,-20.3521,-42.737,MG,Minas Gerais,10333,false,1076,URUCANIA,0.0007714027
Urucuia,-16.1244,-45.7352,MG,Minas Gerais,17470,false,1077,URUCUIA,0.0013471715
Vargem Alegre,-19.5988,-42.2949,MG,Minas Gerais,6460,false,1078,VARGEM ALEGRE,0.0004589531
Vargem Bonita,-20.3333,-46.3688,MG,Minas Gerais,2143,false,1079,VARGEM BONITA,0.0001106844
Vargem Grande do Rio Pardo,-15.3987,-42.3085,MG,Minas Gerais,5045,false,1080,VARGEM GRANDE DO RIO PARDO,0.0003447997
Varginha,-21.5556,-45.4364,MG,Minas Gerais,137608,false,1081,VARGINHA,0.0110391582
Varjão de Minas,-18.3741,-46.0313,MG,Minas Gerais,7235,false,1082,VARJAO DE MINAS,0.0005214753
Várzea da Palma,-17.5944,-44.7226,MG,Minas Gerais,40101,false,1083,VARZEA DA PALMA,0.0031728998
Varzelândia,-15.6992,-44.0278,MG,Minas Gerais,19290,false,1084,VARZELANDIA,0.0014939977
Vazante,-17.9827,-46.9088,MG,Minas Gerais,20692,false,1085,VAZANTE,0.0016071024
Verdelândia,-15.5845,-43.6121,MG,Minas Gerais,9527,false,1086,VERDELANDIA,0.0007063796
Veredinha,-17.3974,-42.7307,MG,Minas Gerais,5733,false,1087,VEREDINHA,0.0004003033
Veríssimo,-19.6657,-48.3118,MG,Minas Gerais,4090,false,1088,VERISSIMO,0.0002677563
Vermelho Novo,-20.0406,-42.2688,MG,Minas Gerais,4852,false,1089,VERMELHO NOVO,0.0003292297
Vespasiano,-19.6883,-43.9239,MG,Minas Gerais,131849,false,1090,VESPASIANO,0.0105745579
Viçosa,-20.7559,-42.8742,MG,Minas Gerais,79910,false,1091,VICOSA,0.0063844424
Vieiras,-20.867,-42.2401,MG,Minas Gerais,3570,false,1092,VIEIRAS,0.0002258059
Virgem da Lapa,-16.807,-42.3431,MG,Minas Gerais,13729,false,1093,VIRGEM DA LAPA,0.0010453709
Virgínia,-22.3264,-45.0965,MG,Minas Gerais,8652,false,1094,VIRGINIA,0.0006357901
Virginópolis,-18.8154,-42.7015,MG,Minas Gerais,10459,false,1095,VIRGINOPOLIS,0.0007815676
Virgolândia,-18.4738,-42.3067,MG,Minas Gerais,5303,false,1096,VIRGOLANDIA,0.0003656136
Visconde do Rio Branco,-21.0127,-42.8361,MG,Minas Gerais,43351,false,1097,VISCONDE DO RIO BRANCO,0.0034350896
Volta Grande,-21.7671,-42.5375,MG,Minas Gerais,5270,false,1098,VOLTA GRANDE,0.0003629513
Wenceslau Braz,-22.5368,-45.3626,MG,Minas Gerais,2543,false,1099,WENCESLAU BRAZ,0.0001429539
Abaetetuba,-1.72183,-48.8788,PA,Pará,160439,false,1100,ABAETETUBA,0.0128810213
Abel Figueiredo,-4.95333,-48.3933,PA,Pará,7536,false,1101,ABEL FIGUEIREDO,0.0005457581
Acará,-1.95383,-48.1985,PA,Pará,55744,false,1102,ACARA,0.0044348798
Afuá,-0.154874,-50.3861,PA,Pará,39910,false,1103,AFUA,0.0031574911
Água Azul do Norte,-6.79053,-50.4791,PA,Pará,27797,false,1104,AGUA AZUL DO NORTE,0.0021802896
Alenquer,-1.94623,-54.7384,PA,Pará,57390,false,1105,ALENQUER,0.0045676688
Almeirim,-1.52904,-52.5788,PA,Pará,34044,false,1106,ALMEIRIM,0.0026842587
Altamira,-3.20407,-52.21,PA,Pará,117320,false,1107,ALTAMIRA,0.0094024485
Anajás,-0.996811,-49.9354,PA,Pará,30091,false,1108,ANAJAS,0.0023653553
Ananindeua,-1.36391,-48.3743,PA,Pará,540410,false,1109,ANANINDEUA,0.0435347185
Anapu,-3.46985,-51.2003,PA,Pará,29312,false,1110,ANAPU,0.0023025104
Augusto Corrêa,-1.05109,-46.6147,PA,Pará,46937,false,1111,AUGUSTO CORREA,0.0037243858
Aurora do Pará,-2.14898,-47.5677,PA,Pará,32200,false,1112,AURORA DO PARA,0.0025354963
Aveiro,-3.60841,-55.3199,PA,Pará,16421,false,1113,AVEIRO,0.0012625447
Bagre,-1.90057,-50.1987,PA,Pará,31967,false,1114,BAGRE,0.0025166993
Baião,-2.79021,-49.6694,PA,Pará,49454,false,1115,BAIAO,0.0039274417
Bannach,-7.34779,-50.3959,PA,Pará,3239,false,1116,BANNACH,0.0001991029
Barcarena,-1.51187,-48.6195,PA,Pará,129333,false,1117,BARCARENA,0.0103715826
Belém,-1.4554,-48.4898,PA,Pará,1506420,true,1118,BELEM,0.1214663976
Belterra,-2.63609,-54.9374,PA,Pará,17944,false,1119,BELTERRA,0.0013854108
Benevides,-1.36183,-48.2434,PA,Pará,64780,false,1120,BENEVIDES,0.005163848
Bom Jesus do Tocantins,-5.0424,-48.6047,PA,Pará,17254,false,1121,BOM JESUS DO TOCANTINS,0.0013297459
Bonito,-1.36745,-47.3066,PA,Pará,16769,false,1122,BONITO,0.0012906191
Bragança,-1.06126,-46.7826,PA,Pará,130122,false,1123,BRAGANCA,0.0104352342
Brasil Novo,-3.29792,-52.534,PA,Pará,14883,false,1124,BRASIL NOVO,0.0011384684
Brejo Grande do Araguaia,-5.69822,-48.4103,PA,Pará,7357,false,1125,BREJO GRANDE DO ARAGUAIA,0.0005313175
Breu Branco,-3.77191,-49.5735,PA,Pará,68597,false,1126,BREU BRANCO,0.0054717799
Breves,-1.68036,-50.4791,PA,Pará,104280,false,1127,BREVES,0.0083504624
Bujaru,-1.51762,-48.0381,PA,Pará,29717,false,1128,BUJARU,0.0023351833
Cachoeira do Arari,-1.01226,-48.9503,PA,Pará,24355,false,1129,CACHOEIRA DO ARARI,0.0019026105
Cachoeira do Piriá,-1.75974,-46.5459,PA,Pará,35307,false,1130,CACHOEIRA DO PIRIA,0.0027861497
Cametá,-2.24295,-49.4979,PA,Pará,140814,false,1131,CAMETA,0.0112977983
Canaã dos Carajás,-6.49659,-49.8776,PA,Pará,39103,false,1132,CANAA DOS CARAJAS,0.0030923874
Capanema,-1.20529,-47.1778,PA,Pará,69828,false,1133,CAPANEMA,0.0055710893
Capitão Poço,-1.74785,-47.0629,PA,Pará,54545,false,1134,CAPITAO POCO,0.0043381519
Castanhal,-1.29797,-47.9167,PA,Pará,205667,false,1135,CASTANHAL,0.016529735
Chaves,-0.164154,-49.987,PA,Pará,24175,false,1136,CHAVES,0.0018880892
Colares,-0.936423,-48.2803,PA,Pará,12175,false,1137,COLARES,0.0009200038
Conceição do Araguaia,-8.26136,-49.2689,PA,Pará,48115,false,1138,CONCEICAO DO ARAGUAIA,0.0038194195
Concórdia do Pará,-1.99238,-47.9422,PA,Pará,34236,false,1139,CONCORDIA DO PARA,0.0026997481
Cumaru do Norte,-7.81097,-50.7698,PA,Pará,14044,false,1140,CUMARU DO NORTE,0.0010707831
Curionópolis,-6.09965,-49.6068,PA,Pará,17764,false,1141,CURIONOPOLIS,0.0013708896
Curralinho,-1.81179,-49.7952,PA,Pará,35530,false,1142,CURRALINHO,0.00280414
Curuá,-1.88775,-55.1168,PA,Pará,14776,false,1143,CURUA,0.0011298363
Curuçá,-0.733214,-47.8515,PA,Pará,41093,false,1144,CURUCA,0.0032529282
Dom Eliseu,-4.19944,-47.8245,PA,Pará,61206,false,1145,DOM ELISEU,0.00487552
Eldorado do Carajás,-6.10389,-49.3553,PA,Pará,34069,false,1146,ELDORADO DO CARAJAS,0.0026862756
Faro,-2.16805,-56.7405,PA,Pará,6949,false,1147,FARO,0.0004984026
Floresta do Araguaia,-7.55335,-49.7125,PA,Pará,20742,false,1148,FLORESTA DO ARAGUAIA,0.0016111361
Garrafão do Norte,-1.92986,-47.0505,PA,Pará,26155,false,1149,GARRAFAO DO NORTE,0.0020478233
Goianésia do Pará,-3.84338,-49.0974,PA,Pará,41678,false,1150,GOIANESIA DO PARA,0.0033001224
Gurupá,-1.41412,-51.6338,PA,Pará,34127,false,1151,GURUPA,0.0026909546
Igarapé-Açu,-1.12539,-47.626,PA,Pará,39234,false,1152,IGARAPE-ACU,0.0031029556
Igarapé-Miri,-1.97533,-48.9575,PA,Pará,63367,false,1153,IGARAPE-MIRI,0.005049856
Inhangapi,-1.4349,-47.9114,PA,Pará,12009,false,1154,INHANGAPI,0.000906612
Ipixuna do Pará,-2.55992,-47.5059,PA,Pará,67170,false,1155,IPIXUNA DO PARA,0.0053566584
Irituia,-1.76984,-47.446,PA,Pará,32639,false,1156,IRITUIA,0.0025709121
Itaituba,-4.2667,-55.9926,PA,Pará,101541,false,1157,ITAITUBA,0.0081294969
Itupiranga,-5.13272,-49.3358,PA,Pará,53439,false,1158,ITUPIRANGA,0.0042489267
Jacareacanga,-6.21469,-57.7544,PA,Pará,6952,false,1159,JACAREACANGA,0.0004986446
Jacundá,-4.44617,-49.1153,PA,Pará,60517,false,1160,JACUNDA,0.0048199357
Juruti,-2.16347,-56.0889,PA,Pará,59961,false,1161,JURUTI,0.0047750811
