---
-
    ibge_code: 1100015
    state_code: RO
    osm_id: 325842
    wikidata_id: Q1761456
    name: 'Alta Floresta d''Oeste'
    is_capital: 
    wikipedia_pt: 'pt:Alta Floresta d''Oeste'
    lon: -61.9998238963
    lat: -11.9355403048
    no_accents: 'Alta Floresta d''Oeste'
    alternative_names: 
    microregion: Cacoal
    mesoregion: Leste Rondoniense
-
    ibge_code: 1100023
    state_code: RO
    osm_id: 325888
    wikidata_id: Q1646975
    name: Ariquemes
    is_capital: 
    wikipedia_pt: pt:Ariquemes
    lon: -63.033269278
    lat: -9.9084628666
    no_accents: Ariquemes
    alternative_names: 
    microregion: Ariquemes
    mesoregion: Leste Rondoniense
-
    ibge_code: 1100031
    state_code: RO
    osm_id: 325882
    wikidata_id: Q940433
    name: Cabixi
    is_capital: 
    wikipedia_pt: pt:Cabixi
    lon: -60.5443135812
    lat: -13.4997634597
    no_accents: Cabixi
    alternative_names: 
    microregion: Colorado do Oeste
    mesoregion: Leste Rondoniense
-
    ibge_code: 1100049
    state_code: RO
    osm_id: 325872
    wikidata_id: Q1761637
    name: Cacoal
    is_capital: 
    wikipedia_pt: pt:Cacoal
    lon: -61.4429442118
    lat: -11.4338650287
    no_accents: Cacoal
    alternative_names: 
    microregion: Cacoal
    mesoregion: Leste Rondoniense
-
    ibge_code: 1100056
    state_code: RO
    osm_id: 325883
    wikidata_id: Q1803210
    name: Cerejeiras
    is_capital: 
    wikipedia_pt: pt:Cerejeiras
    lon: -60.8184261647
    lat: -13.195033032
    no_accents: Cerejeiras
    alternative_names: 
    microregion: Colorado do Oeste
    mesoregion: Leste Rondoniense
-
    ibge_code: 1100064
    state_code: RO
    osm_id: 325860
    wikidata_id: Q1785819
    name: Colorado do Oeste
    is_capital: 
    wikipedia_pt: pt:Colorado do Oeste
    lon: -60.5550674631
    lat: -13.1305638415
    no_accents: Colorado do Oeste
    alternative_names: 
    microregion: Colorado do Oeste
    mesoregion: Leste Rondoniense
-
    ibge_code: 1100072
    state_code: RO
    osm_id: 325874
    wikidata_id: Q927349
    name: Corumbiara
    is_capital: 
    wikipedia_pt: pt:Corumbiara
    lon: -60.9487011707
    lat: -12.9975202365
    no_accents: Corumbiara
    alternative_names: 
    microregion: Colorado do Oeste
    mesoregion: Leste Rondoniense
-
    ibge_code: 1100080
    state_code: RO
    osm_id: 325844
    wikidata_id: Q656758
    name: Costa Marques
    is_capital: 
    wikipedia_pt: pt:Costa Marques
    lon: -64.2316539391
    lat: -12.4360138777
    no_accents: Costa Marques
    alternative_names: 
    microregion: Guajará-Mirim
    mesoregion: Madeira-Guaporé
-
    ibge_code: 1100098
    state_code: RO
    osm_id: 325845
    wikidata_id: Q616498
    name: 'Espigão d''Oeste'
    is_capital: 
    wikipedia_pt: 'pt:Espigão d''Oeste'
    lon: -61.0201731133
    lat: -11.5285546333
    no_accents: 'Espigao d''Oeste'
    alternative_names: 
    microregion: Cacoal
    mesoregion: Leste Rondoniense
-
    ibge_code: 1100106
    state_code: RO
    osm_id: 325856
    wikidata_id: Q983810
    name: Guajará-Mirim
    is_capital: 
    wikipedia_pt: pt:Guajará-Mirim
    lon: -65.3239518197
    lat: -10.7738837407
    no_accents: Guajara-Mirim
    alternative_names: 
    microregion: Guajará-Mirim
    mesoregion: Madeira-Guaporé
-
    ibge_code: 1100114
    state_code: RO
    osm_id: 325864
    wikidata_id: Q988755
    name: Jaru
    is_capital: 
    wikipedia_pt: pt:Jaru
    lon: -62.4762307081
    lat: -10.4359487679
    no_accents: Jaru
    alternative_names: 
    microregion: Ji-Paraná
    mesoregion: Leste Rondoniense
-
    ibge_code: 1100122
    state_code: RO
    osm_id: 325879
    wikidata_id: Q983815
    name: Ji-Paraná
    is_capital: 
    wikipedia_pt: pt:Ji-Paraná
    lon: -61.9450945827
    lat: -10.8820513183
    no_accents: Ji-Parana
    alternative_names: 
    microregion: Ji-Paraná
    mesoregion: Leste Rondoniense
-
    ibge_code: 1100130
    state_code: RO
    osm_id: 325881
    wikidata_id: Q1786440
    name: 'Machadinho d''Oeste'
    is_capital: 
    wikipedia_pt: 'pt:Machadinho d''Oeste'
    lon: -61.9995925724
    lat: -9.42556248
    no_accents: 'Machadinho d''Oeste'
    alternative_names: 
    microregion: Ariquemes
    mesoregion: Leste Rondoniense
-
    ibge_code: 1100148
    state_code: RO
    osm_id: 325857
    wikidata_id: Q2014329
    name: 'Nova Brasilândia d''Oeste'
    is_capital: 
    wikipedia_pt: 'pt:Nova Brasilândia d''Oeste'
    lon: -62.308230163
    lat: -11.7213254139
    no_accents: 'Nova Brasilandia d''Oeste'
    alternative_names: 
    microregion: 'Alvorada D''oeste'
    mesoregion: Leste Rondoniense
-
    ibge_code: 1100155
    state_code: RO
    osm_id: 325854
    wikidata_id: Q1803223
    name: Ouro Preto do Oeste
    is_capital: 
    wikipedia_pt: pt:Ouro Preto do Oeste
    lon: -62.2610551904
    lat: -10.7235739008
    no_accents: Ouro Preto do Oeste
    alternative_names: 
    microregion: Ji-Paraná
    mesoregion: Leste Rondoniense
-
    ibge_code: 1100189
    state_code: RO
    osm_id: 325843
    wikidata_id: Q1803175
    name: Pimenta Bueno
    is_capital: 
    wikipedia_pt: pt:Pimenta Bueno
    lon: -61.1836656736
    lat: -11.67753699
    no_accents: Pimenta Bueno
    alternative_names: 
    microregion: Vilhena
    mesoregion: Leste Rondoniense
-
    ibge_code: 1100205
    state_code: RO
    osm_id: 325855
    wikidata_id: Q172512
    name: Porto Velho
    is_capital: true
    wikipedia_pt: pt:Porto Velho
    lon: -63.8314456544
    lat: -8.76889179
    no_accents: Porto Velho
    alternative_names: 
    microregion: Porto Velho
    mesoregion: Madeira-Guaporé
-
    ibge_code: 1100254
    state_code: RO
    osm_id: 325892
    wikidata_id: Q1871362
    name: Presidente Médici
    is_capital: 
    wikipedia_pt: pt:Presidente Médici (Rondônia)
    lon: -61.9094386835
    lat: -11.1732050162
    no_accents: Presidente Medici
    alternative_names: 
    microregion: Ji-Paraná
    mesoregion: Leste Rondoniense
-
    ibge_code: 1100262
    state_code: RO
    osm_id: 325848
    wikidata_id: Q1786495
    name: Rio Crespo
    is_capital: 
    wikipedia_pt: pt:Rio Crespo
    lon: -62.900010366
    lat: -9.7055367097
    no_accents: Rio Crespo
    alternative_names: 
    microregion: Ariquemes
    mesoregion: Leste Rondoniense
-
    ibge_code: 1100288
    state_code: RO
    osm_id: 325876
    wikidata_id: Q1784242
    name: Rolim de Moura
    is_capital: 
    wikipedia_pt: pt:Rolim de Moura
    lon: -61.7857809352
    lat: -11.7222589134
    no_accents: Rolim de Moura
    alternative_names: 
    microregion: Cacoal
    mesoregion: Leste Rondoniense
-
    ibge_code: 1100296
    state_code: RO
    osm_id: 325862
    wikidata_id: Q1802100
    name: 'Santa Luzia d''Oeste'
    is_capital: 
    wikipedia_pt: 'pt:Santa Luzia d''Oeste'
    lon: -61.7733054631
    lat: -11.9084233325
    no_accents: 'Santa Luzia d''Oeste'
    alternative_names: 
    microregion: Cacoal
    mesoregion: Leste Rondoniense
-
    ibge_code: 1100304
    state_code: RO
    osm_id: 325887
    wikidata_id: Q1749958
    name: Vilhena
    is_capital: 
    wikipedia_pt: pt:Vilhena
    lon: -60.1385838661
    lat: -12.7413734718
    no_accents: Vilhena
    alternative_names: 
    microregion: Vilhena
    mesoregion: Leste Rondoniense
-
    ibge_code: 1100320
    state_code: RO
    osm_id: 325863
    wikidata_id: Q1807456
    name: São Miguel do Guaporé
    is_capital: 
    wikipedia_pt: pt:São Miguel do Guaporé
    lon: -62.7200634814
    lat: -11.6994897438
    no_accents: Sao Miguel do Guapore
    alternative_names: 
    microregion: 'Alvorada D''oeste'
    mesoregion: Leste Rondoniense
-
    ibge_code: 1100338
    state_code: RO
    osm_id: 325849
    wikidata_id: Q993507
    name: Nova Mamoré
    is_capital: 
    wikipedia_pt: pt:Nova Mamoré
    lon: -65.3291490231
    lat: -10.4117712947
    no_accents: Nova Mamore
    alternative_names: 
    microregion: Porto Velho
    mesoregion: Madeira-Guaporé
-
    ibge_code: 1100346
    state_code: RO
    osm_id: 325853
    wikidata_id: Q1786028
    name: 'Alvorada d''Oeste'
    is_capital: 
    wikipedia_pt: 'pt:Alvorada d''Oeste'
    lon: -62.2772748657
    lat: -11.3441300234
    no_accents: 'Alvorada d''Oeste'
    alternative_names: 
    microregion: 'Alvorada D''oeste'
    mesoregion: Leste Rondoniense
-
    ibge_code: 1100379
    state_code: RO
    osm_id: 325858
    wikidata_id: Q1802050
    name: Alto Alegre dos Parecis
    is_capital: 
    wikipedia_pt: pt:Alto Alegre dos Parecis
    lon: -61.8530771686
    lat: -12.1317772246
    no_accents: Alto Alegre dos Parecis
    alternative_names: 
    microregion: Cacoal
    mesoregion: Leste Rondoniense
-
    ibge_code: 1100403
    state_code: RO
    osm_id: 325870
    wikidata_id: Q607036
    name: Alto Paraíso
    is_capital: 
    wikipedia_pt: pt:Alto Paraíso (Rondônia)
    lon: -63.3176294335
    lat: -9.7166667381
    no_accents: Alto Paraiso
    alternative_names: 
    microregion: Ariquemes
    mesoregion: Leste Rondoniense
-
    ibge_code: 1100452
    state_code: RO
    osm_id: 325859
    wikidata_id: Q1921800
    name: Buritis
    is_capital: 
    wikipedia_pt: pt:Buritis (Rondônia)
    lon: -63.8296787918
    lat: -10.2098054072
    no_accents: Buritis
    alternative_names: 
    microregion: Porto Velho
    mesoregion: Madeira-Guaporé
-
    ibge_code: 1100502
    state_code: RO
    osm_id: 325865
    wikidata_id: Q2013150
    name: Novo Horizonte do Oeste
    is_capital: 
    wikipedia_pt: pt:Novo Horizonte do Oeste
    lon: -61.9943876628
    lat: -11.70974292
    no_accents: Novo Horizonte do Oeste
    alternative_names: 
    microregion: Cacoal
    mesoregion: Leste Rondoniense
-
    ibge_code: 1100601
    state_code: RO
    osm_id: 325847
    wikidata_id: Q1750177
    name: Cacaulândia
    is_capital: 
    wikipedia_pt: pt:Cacaulândia
    lon: -62.9031899346
    lat: -10.3388728394
    no_accents: Cacaulandia
    alternative_names: 
    microregion: Ariquemes
    mesoregion: Leste Rondoniense
-
    ibge_code: 1100700
    state_code: RO
    osm_id: 325871
    wikidata_id: Q2089179
    name: Campo Novo de Rondônia
    is_capital: 
    wikipedia_pt: pt:Campo Novo de Rondônia
    lon: -63.6249914265
    lat: -10.5684164693
    no_accents: Campo Novo de Rondonia
    alternative_names: 
    microregion: Porto Velho
    mesoregion: Madeira-Guaporé
-
    ibge_code: 1100809
    state_code: RO
    osm_id: 325890
    wikidata_id: Q2078405
    name: Candeias do Jamari
    is_capital: 
    wikipedia_pt: pt:Candeias do Jamari
    lon: -63.7000200718
    lat: -8.7850207035
    no_accents: Candeias do Jamari
    alternative_names: 
    microregion: Porto Velho
    mesoregion: Madeira-Guaporé
-
    ibge_code: 1100908
    state_code: RO
    osm_id: 325891
    wikidata_id: Q1785860
    name: Castanheiras
    is_capital: 
    wikipedia_pt: pt:Castanheiras
    lon: -61.9491611965
    lat: -11.4268422255
    no_accents: Castanheiras
    alternative_names: 
    microregion: Cacoal
    mesoregion: Leste Rondoniense
-
    ibge_code: 1100924
    state_code: RO
    osm_id: 325852
    wikidata_id: Q735454
    name: Chupinguaia
    is_capital: 
    wikipedia_pt: pt:Chupinguaia
    lon: -60.90184775
    lat: -12.5568407611
    no_accents: Chupinguaia
    alternative_names: 
    microregion: Vilhena
    mesoregion: Leste Rondoniense
-
    ibge_code: 1100940
    state_code: RO
    osm_id: 325880
    wikidata_id: Q1803135
    name: Cujubim
    is_capital: 
    wikipedia_pt: pt:Cujubim
    lon: -62.5871745319
    lat: -9.3781933991
    no_accents: Cujubim
    alternative_names: 
    microregion: Porto Velho
    mesoregion: Madeira-Guaporé
-
    ibge_code: 1101005
    state_code: RO
    osm_id: 325894
    wikidata_id: Q964725
    name: Governador Jorge Teixeira
    is_capital: 
    wikipedia_pt: pt:Governador Jorge Teixeira
    lon: -62.7404576395
    lat: -10.6120717726
    no_accents: Governador Jorge Teixeira
    alternative_names: 
    microregion: Ji-Paraná
    mesoregion: Leste Rondoniense
-
    ibge_code: 1101104
    state_code: RO
    osm_id: 325893
    wikidata_id: Q1802170
    name: Itapuã do Oeste
    is_capital: 
    wikipedia_pt: pt:Itapuã do Oeste
    lon: -63.1823370165
    lat: -9.1918716753
    no_accents: Itapua do Oeste
    alternative_names: 
    microregion: Porto Velho
    mesoregion: Madeira-Guaporé
-
    ibge_code: 1101203
    state_code: RO
    osm_id: 325889
    wikidata_id: Q775204
    name: Ministro Andreazza
    is_capital: 
    wikipedia_pt: pt:Ministro Andreazza
    lon: -61.5189219301
    lat: -11.1962379842
    no_accents: Ministro Andreazza
    alternative_names: 
    microregion: Cacoal
    mesoregion: Leste Rondoniense
-
    ibge_code: 1101302
    state_code: RO
    osm_id: 325875
    wikidata_id: Q2079711
    name: Mirante da Serra
    is_capital: 
    wikipedia_pt: pt:Mirante da Serra
    lon: -62.6694270953
    lat: -11.0456092899
    no_accents: Mirante da Serra
    alternative_names: 
    microregion: Ji-Paraná
    mesoregion: Leste Rondoniense
-
    ibge_code: 1101401
    state_code: RO
    osm_id: 325873
    wikidata_id: Q2014320
    name: Monte Negro
    is_capital: 
    wikipedia_pt: pt:Monte Negro
    lon: -63.2955591672
    lat: -10.2630977559
    no_accents: Monte Negro
    alternative_names: 
    microregion: Ariquemes
    mesoregion: Leste Rondoniense
-
    ibge_code: 1101435
    state_code: RO
    osm_id: 325846
    wikidata_id: Q2364475
    name: Nova União
    is_capital: 
    wikipedia_pt: pt:Nova União (Rondônia)
    lon: -62.5550893989
    lat: -10.9155320417
    no_accents: Nova Uniao
    alternative_names: 
    microregion: Ji-Paraná
    mesoregion: Leste Rondoniense
-
    ibge_code: 1101450
    state_code: RO
    osm_id: 325850
    wikidata_id: Q1803114
    name: Parecis
    is_capital: 
    wikipedia_pt: pt:Parecis (Rondônia)
    lon: -61.5979979727
    lat: -12.1798270507
    no_accents: Parecis
    alternative_names: 
    microregion: Vilhena
    mesoregion: Leste Rondoniense
-
    ibge_code: 1101468
    state_code: RO
    osm_id: 325885
    wikidata_id: Q1803105
    name: Pimenteiras do Oeste
    is_capital: 
    wikipedia_pt: pt:Pimenteiras do Oeste
    lon: -61.0443790025
    lat: -13.4765620025
    no_accents: Pimenteiras do Oeste
    alternative_names: 
    microregion: Colorado do Oeste
    mesoregion: Leste Rondoniense
-
    ibge_code: 1101476
    state_code: RO
    osm_id: 325878
    wikidata_id: Q1802123
    name: Primavera de Rondônia
    is_capital: 
    wikipedia_pt: pt:Primavera de Rondônia
    lon: -61.3165462429
    lat: -11.8257069542
    no_accents: Primavera de Rondonia
    alternative_names: 
    microregion: Vilhena
    mesoregion: Leste Rondoniense
-
    ibge_code: 1101484
    state_code: RO
    osm_id: 325877
    wikidata_id: Q1803269
    name: 'São Felipe d''Oeste'
    is_capital: 
    wikipedia_pt: 'pt:São Felipe d''Oeste'
    lon: -61.5125081133
    lat: -11.9143893547
    no_accents: 'Sao Felipe d''Oeste'
    alternative_names: 
    microregion: Vilhena
    mesoregion: Leste Rondoniense
-
    ibge_code: 1101492
    state_code: RO
    osm_id: 325851
    wikidata_id: Q1802095
    name: São Francisco do Guaporé
    is_capital: 
    wikipedia_pt: pt:São Francisco do Guaporé
    lon: -63.5708647108
    lat: -12.0637984122
    no_accents: Sao Francisco do Guapore
    alternative_names: 
    microregion: Guajará-Mirim
    mesoregion: Madeira-Guaporé
-
    ibge_code: 1101500
    state_code: RO
    osm_id: 325867
    wikidata_id: Q727950
    name: Seringueiras
    is_capital: 
    wikipedia_pt: pt:Seringueiras
    lon: -63.0387609977
    lat: -11.7671166356
    no_accents: Seringueiras
    alternative_names: 
    microregion: 'Alvorada D''oeste'
    mesoregion: Leste Rondoniense
-
    ibge_code: 1101559
    state_code: RO
    osm_id: 325861
    wikidata_id: Q1802088
    name: Teixeirópolis
    is_capital: 
    wikipedia_pt: pt:Teixeirópolis
    lon: -62.255922254
    lat: -10.932169286
    no_accents: Teixeiropolis
    alternative_names: 
    microregion: Ji-Paraná
    mesoregion: Leste Rondoniense
-
    ibge_code: 1101609
    state_code: RO
    osm_id: 325886
    wikidata_id: Q647208
    name: Theobroma
    is_capital: 
    wikipedia_pt: pt:Theobroma
    lon: -62.3451455299
    lat: -10.248730552
    no_accents: Theobroma
    alternative_names: 
    microregion: Ji-Paraná
    mesoregion: Leste Rondoniense
-
    ibge_code: 1101708
    state_code: RO
    osm_id: 325884
    wikidata_id: Q2089326
    name: Urupá
    is_capital: 
    wikipedia_pt: pt:Urupá
    lon: -62.3706324538
    lat: -11.1285452757
    no_accents: Urupa
    alternative_names: 
    microregion: Ji-Paraná
    mesoregion: Leste Rondoniense
-
    ibge_code: 1101757
    state_code: RO
    osm_id: 325868
    wikidata_id: Q1807445
    name: Vale do Anari
    is_capital: 
    wikipedia_pt: pt:Vale do Anari
    lon: -62.1768234421
    lat: -9.8513927081
    no_accents: Vale do Anari
    alternative_names: 
    microregion: Ariquemes
    mesoregion: Leste Rondoniense
-
    ibge_code: 1101807
    state_code: RO
    osm_id: 325869
    wikidata_id: Q2013187
    name: Vale do Paraíso
    is_capital: 
    wikipedia_pt: pt:Vale do Paraíso (Rondônia)
    lon: -62.1343903568
    lat: -10.4310526846
    no_accents: Vale do Paraiso
    alternative_names: 
    microregion: Ji-Paraná
    mesoregion: Leste Rondoniense
-
    ibge_code: 1200013
    state_code: AC
    osm_id: 326273
    wikidata_id: Q953086
    name: Acrelândia
    is_capital: 
    wikipedia_pt: pt:Acrelândia
    lon: -67.05231658
    lat: -10.0737938925
    no_accents: Acrelandia
    alternative_names: 
    microregion: Rio Branco
    mesoregion: Vale do Acre
-
    ibge_code: 1200054
    state_code: AC
    osm_id: 326269
    wikidata_id: Q1754403
    name: Assis Brasil
    is_capital: 
    wikipedia_pt: pt:Assis Brasil
    lon: -69.5634591747
    lat: -10.9428656809
    no_accents: Assis Brasil
    alternative_names: 
    microregion: Brasiléia
    mesoregion: Vale do Acre
-
    ibge_code: 1200104
    state_code: AC
    osm_id: 326270
    wikidata_id: Q899406
    name: Brasiléia
    is_capital: 
    wikipedia_pt: pt:Brasileia
    lon: -68.747943426
    lat: -11.0164110191
    no_accents: Brasileia
    alternative_names: 
    microregion: Brasiléia
    mesoregion: Vale do Acre
-
    ibge_code: 1200138
    state_code: AC
    osm_id: 326259
    wikidata_id: Q1754408
    name: Bujari
    is_capital: 
    wikipedia_pt: pt:Bujari
    lon: -67.9518592792
    lat: -9.8200196267
    no_accents: Bujari
    alternative_names: 
    microregion: Rio Branco
    mesoregion: Vale do Acre
-
    ibge_code: 1200179
    state_code: AC
    osm_id: 326268
    wikidata_id: Q1800737
    name: Capixaba
    is_capital: 
    wikipedia_pt: pt:Capixaba (Acre)
    lon: -67.6735079719
    lat: -10.5697677088
    no_accents: Capixaba
    alternative_names: 
    microregion: Rio Branco
    mesoregion: Vale do Acre
-
    ibge_code: 1200203
    state_code: AC
    osm_id: 326274
    wikidata_id: Q941136
    name: Cruzeiro do Sul
    is_capital: 
    wikipedia_pt: pt:Cruzeiro do Sul (Acre)
    lon: -72.6725313174
    lat: -7.630690005
    no_accents: Cruzeiro do Sul
    alternative_names: 
    microregion: Cruzeiro do Sul
    mesoregion: Vale do Juruá
-
    ibge_code: 1200252
    state_code: AC
    osm_id: 326256
    wikidata_id: Q1755395
    name: Epitaciolândia
    is_capital: 
    wikipedia_pt: pt:Epitaciolândia
    lon: -68.7448680667
    lat: -11.028239828
    no_accents: Epitaciolandia
    alternative_names: 
    microregion: Brasiléia
    mesoregion: Vale do Acre
-
    ibge_code: 1200302
    state_code: AC
    osm_id: 326258
    wikidata_id: Q1994833
    name: Feijó
    is_capital: 
    wikipedia_pt: pt:Feijó (Acre)
    lon: -70.3539836082
    lat: -8.16024753
    no_accents: Feijo
    alternative_names: 
    microregion: Tarauacá
    mesoregion: Vale do Juruá
-
    ibge_code: 1200328
    state_code: AC
    osm_id: 326252
    wikidata_id: Q1800793
    name: Jordão
    is_capital: 
    wikipedia_pt: pt:Jordão (Acre)
    lon: -71.9508751248
    lat: -9.1933578598
    no_accents: Jordao
    alternative_names: 
    microregion: Tarauacá
    mesoregion: Vale do Juruá
-
    ibge_code: 1200336
    state_code: AC
    osm_id: 326262
    wikidata_id: Q1772621
    name: Mâncio Lima
    is_capital: 
    wikipedia_pt: pt:Mâncio Lima
    lon: -72.9165010261
    lat: -7.5932225939
    no_accents: Mancio Lima
    alternative_names: 
    microregion: Cruzeiro do Sul
    mesoregion: Vale do Juruá
-
    ibge_code: 1200344
    state_code: AC
    osm_id: 326271
    wikidata_id: Q1772688
    name: Manoel Urbano
    is_capital: 
    wikipedia_pt: pt:Manoel Urbano
    lon: -69.2599445775
    lat: -8.8363177369
    no_accents: Manoel Urbano
    alternative_names: 
    microregion: Sena Madureira
    mesoregion: Vale do Acre
-
    ibge_code: 1200351
    state_code: AC
    osm_id: 326257
    wikidata_id: Q1772613
    name: Marechal Thaumaturgo
    is_capital: 
    wikipedia_pt: pt:Marechal Thaumaturgo
    lon: -72.7902659087
    lat: -8.9535911232
    no_accents: Marechal Thaumaturgo
    alternative_names: 
    microregion: Cruzeiro do Sul
    mesoregion: Vale do Juruá
-
    ibge_code: 1200385
    state_code: AC
    osm_id: 326267
    wikidata_id: Q964075
    name: Plácido de Castro
    is_capital: 
    wikipedia_pt: pt:Plácido de Castro (Acre)
    lon: -67.1882600862
    lat: -10.3351332827
    no_accents: Placido de Castro
    alternative_names: 
    microregion: Rio Branco
    mesoregion: Vale do Acre
-
    ibge_code: 1200393
    state_code: AC
    osm_id: 326264
    wikidata_id: Q1772588
    name: Porto Walter
    is_capital: 
    wikipedia_pt: pt:Porto Walter
    lon: -72.7423339648
    lat: -8.2666663628
    no_accents: Porto Walter
    alternative_names: 
    microregion: Cruzeiro do Sul
    mesoregion: Vale do Juruá
-
    ibge_code: 1200401
    state_code: AC
    osm_id: 326253
    wikidata_id: Q171612
    name: Rio Branco
    is_capital: true
    wikipedia_pt: pt:Rio Branco
    lon: -67.8105287004
    lat: -9.9782987527
    no_accents: Rio Branco
    alternative_names: 
    microregion: Rio Branco
    mesoregion: Vale do Acre
-
    ibge_code: 1200427
    state_code: AC
    osm_id: 326254
    wikidata_id: Q1800776
    name: Rodrigues Alves
    is_capital: 
    wikipedia_pt: pt:Rodrigues Alves (Acre)
    lon: -72.6478549142
    lat: -7.7336020337
    no_accents: Rodrigues Alves
    alternative_names: 
    microregion: Cruzeiro do Sul
    mesoregion: Vale do Juruá
-
    ibge_code: 1200435
    state_code: AC
    osm_id: 326272
    wikidata_id: Q1772719
    name: Santa Rosa do Purus
    is_capital: 
    wikipedia_pt: pt:Santa Rosa do Purus
    lon: -70.4864968938
    lat: -9.4434065374
    no_accents: Santa Rosa do Purus
    alternative_names: 
    microregion: Sena Madureira
    mesoregion: Vale do Acre
-
    ibge_code: 1200450
    state_code: AC
    osm_id: 326261
    wikidata_id: Q771763
    name: Senador Guiomard
    is_capital: 
    wikipedia_pt: pt:Senador Guiomard
    lon: -67.74317236
    lat: -10.1481735862
    no_accents: Senador Guiomard
    alternative_names: 
    microregion: Rio Branco
    mesoregion: Vale do Acre
-
    ibge_code: 1200500
    state_code: AC
    osm_id: 326263
    wikidata_id: Q1754389
    name: Sena Madureira
    is_capital: 
    wikipedia_pt: pt:Sena Madureira
    lon: -68.6556840617
    lat: -9.065339505
    no_accents: Sena Madureira
    alternative_names: 
    microregion: Sena Madureira
    mesoregion: Vale do Acre
-
    ibge_code: 1200609
    state_code: AC
    osm_id: 326255
    wikidata_id: Q979910
    name: Tarauacá
    is_capital: 
    wikipedia_pt: pt:Tarauacá
    lon: -70.7555010629
    lat: -8.1556685918
    no_accents: Tarauaca
    alternative_names: 
    microregion: Tarauacá
    mesoregion: Vale do Juruá
-
    ibge_code: 1200708
    state_code: AC
    osm_id: 326260
    wikidata_id: Q1012531
    name: Xapuri
    is_capital: 
    wikipedia_pt: pt:Xapuri
    lon: -68.506294805
    lat: -10.6520719403
    no_accents: Xapuri
    alternative_names: 
    microregion: Brasiléia
    mesoregion: Vale do Acre
-
    ibge_code: 1200807
    state_code: AC
    osm_id: 326265
    wikidata_id: Q1772602
    name: Porto Acre
    is_capital: 
    wikipedia_pt: pt:Porto Acre
    lon: -67.5405900835
    lat: -9.6008582312
    no_accents: Porto Acre
    alternative_names: 
    microregion: Rio Branco
    mesoregion: Vale do Acre
-
    ibge_code: 1300029
    state_code: AM
    osm_id: 332499
    wikidata_id: Q1808573
    name: Alvarães
    is_capital: 
    wikipedia_pt: pt:Alvarães (Amazonas)
    lon: -64.8135346776
    lat: -3.2165837691
    no_accents: Alvaraes
    alternative_names: 
    microregion: Tefé
    mesoregion: Centro Amazonense
-
    ibge_code: 1300060
    state_code: AM
    osm_id: 332512
    wikidata_id: Q1772609
    name: Amaturá
    is_capital: 
    wikipedia_pt: pt:Amaturá
    lon: -68.2096146409
    lat: -3.3668051875
    no_accents: Amatura
    alternative_names: 
    microregion: Alto Solimões
    mesoregion: Sudoeste Amazonense
-
    ibge_code: 1300086
    state_code: AM
    osm_id: 332497
    wikidata_id: Q974915
    name: Anamã
    is_capital: 
    wikipedia_pt: pt:Anamã
    lon: -61.4059034798
    lat: -3.5763704269
    no_accents: Anama
    alternative_names: 
    microregion: Coari
    mesoregion: Centro Amazonense
-
    ibge_code: 1300102
    state_code: AM
    osm_id: 332474
    wikidata_id: Q931090
    name: Anori
    is_capital: 
    wikipedia_pt: pt:Anori
    lon: -61.6589553829
    lat: -3.7453855861
    no_accents: Anori
    alternative_names: 
    microregion: Coari
    mesoregion: Centro Amazonense
-
    ibge_code: 1300144
    state_code: AM
    osm_id: 332502
    wikidata_id: Q1112525
    name: Apuí
    is_capital: 
    wikipedia_pt: pt:Apuí
    lon: -59.8856661047
    lat: -7.1978701516
    no_accents: Apui
    alternative_names: 
    microregion: Madeira
    mesoregion: Sul Amazonense
-
    ibge_code: 1300201
    state_code: AM
    osm_id: 332473
    wikidata_id: Q1793319
    name: Atalaia do Norte
    is_capital: 
    wikipedia_pt: pt:Atalaia do Norte
    lon: -70.1879892845
    lat: -4.3661574897
    no_accents: Atalaia do Norte
    alternative_names: 
    microregion: Alto Solimões
    mesoregion: Sudoeste Amazonense
-
    ibge_code: 1300300
    state_code: AM
    osm_id: 332503
    wikidata_id: Q1772695
    name: Autazes
    is_capital: 
    wikipedia_pt: pt:Autazes
    lon: -59.1335670918
    lat: -3.5786636418
    no_accents: Autazes
    alternative_names: 
    microregion: Manaus
    mesoregion: Centro Amazonense
-
    ibge_code: 1300409
    state_code: AM
    osm_id: 332478
    wikidata_id: Q807939
    name: Barcelos
    is_capital: 
    wikipedia_pt: pt:Barcelos (Amazonas)
    lon: -62.9256696581
    lat: -0.9728010525
    no_accents: Barcelos
    alternative_names: 
    microregion: Rio Negro
    mesoregion: Norte Amazonense
-
    ibge_code: 1300508
    state_code: AM
    osm_id: 332522
    wikidata_id: Q1772565
    name: Barreirinha
    is_capital: 
    wikipedia_pt: pt:Barreirinha
    lon: -57.0677504899
    lat: -2.7981498369
    no_accents: Barreirinha
    alternative_names: 
    microregion: Parintins
    mesoregion: Centro Amazonense
-
    ibge_code: 1300607
    state_code: AM
    osm_id: 332518
    wikidata_id: Q1767926
    name: Benjamin Constant
    is_capital: 
    wikipedia_pt: pt:Benjamin Constant (Amazonas)
    lon: -70.0273484333
    lat: -4.3749890186
    no_accents: Benjamin Constant
    alternative_names: 
    microregion: Alto Solimões
    mesoregion: Sudoeste Amazonense
-
    ibge_code: 1300631
    state_code: AM
    osm_id: 332513
    wikidata_id: Q584172
    name: Beruri
    is_capital: 
    wikipedia_pt: pt:Beruri
    lon: -61.3715708917
    lat: -3.8945134098
    no_accents: Beruri
    alternative_names: 
    microregion: Coari
    mesoregion: Centro Amazonense
-
    ibge_code: 1300680
    state_code: AM
    osm_id: 332464
    wikidata_id: Q940548
    name: Boa Vista do Ramos
    is_capital: 
    wikipedia_pt: pt:Boa Vista do Ramos
    lon: -57.5877073465
    lat: -2.9717265316
    no_accents: Boa Vista do Ramos
    alternative_names: 
    microregion: Parintins
    mesoregion: Centro Amazonense
-
    ibge_code: 1300706
    state_code: AM
    osm_id: 332492
    wikidata_id: Q1793334
    name: Boca do Acre
    is_capital: 
    wikipedia_pt: pt:Boca do Acre
    lon: -67.3995777567
    lat: -8.7512431961
    no_accents: Boca do Acre
    alternative_names: 
    microregion: Boca do Acre
    mesoregion: Sul Amazonense
-
    ibge_code: 1300805
    state_code: AM
    osm_id: 332495
    wikidata_id: Q2089660
    name: Borba
    is_capital: 
    wikipedia_pt: pt:Borba (Amazonas)
    lon: -59.5945590195
    lat: -4.3906198915
    no_accents: Borba
    alternative_names: 
    microregion: Madeira
    mesoregion: Sul Amazonense
-
    ibge_code: 1300839
    state_code: AM
    osm_id: 332501
    wikidata_id: Q945469
    name: Caapiranga
    is_capital: 
    wikipedia_pt: pt:Caapiranga
    lon: -61.2113341332
    lat: -3.3300933919
    no_accents: Caapiranga
    alternative_names: 
    microregion: Coari
    mesoregion: Centro Amazonense
-
    ibge_code: 1300904
    state_code: AM
    osm_id: 332480
    wikidata_id: Q1807050
    name: Canutama
    is_capital: 
    wikipedia_pt: pt:Canutama
    lon: -64.3942308189
    lat: -6.5291060758
    no_accents: Canutama
    alternative_names: 
    microregion: Purus
    mesoregion: Sul Amazonense
-
    ibge_code: 1301001
    state_code: AM
    osm_id: 332496
    wikidata_id: Q1794236
    name: Carauari
    is_capital: 
    wikipedia_pt: pt:Carauari
    lon: -66.8966352817
    lat: -4.8816659042
    no_accents: Carauari
    alternative_names: 
    microregion: Juruá
    mesoregion: Sudoeste Amazonense
-
    ibge_code: 1301100
    state_code: AM
    osm_id: 332515
    wikidata_id: Q1751325
    name: Careiro
    is_capital: 
    wikipedia_pt: pt:Careiro
    lon: -60.3638098437
    lat: -3.82244727
    no_accents: Careiro
    alternative_names: 
    microregion: Manaus
    mesoregion: Centro Amazonense
-
    ibge_code: 1301159
    state_code: AM
    osm_id: 332462
    wikidata_id: Q1807045
    name: Careiro da Várzea
    is_capital: 
    wikipedia_pt: pt:Careiro da Várzea
    lon: -59.8263140608
    lat: -3.1973965949
    no_accents: Careiro da Varzea
    alternative_names: 
    microregion: Manaus
    mesoregion: Centro Amazonense
-
    ibge_code: 1301209
    state_code: AM
    osm_id: 332521
    wikidata_id: Q645204
    name: Coari
    is_capital: 
    wikipedia_pt: pt:Coari
    lon: -63.1421839841
    lat: -4.0842191588
    no_accents: Coari
    alternative_names: 
    microregion: Coari
    mesoregion: Centro Amazonense
-
    ibge_code: 1301308
    state_code: AM
    osm_id: 332491
    wikidata_id: Q1762074
    name: Codajás
    is_capital: 
    wikipedia_pt: pt:Codajás
    lon: -62.0634296605
    lat: -3.8430459327
    no_accents: Codajas
    alternative_names: 
    microregion: Coari
    mesoregion: Centro Amazonense
-
    ibge_code: 1301407
    state_code: AM
    osm_id: 332511
    wikidata_id: Q1646910
    name: Eirunepé
    is_capital: 
    wikipedia_pt: pt:Eirunepé
    lon: -69.8662902624
    lat: -6.6673525669
    no_accents: Eirunepe
    alternative_names: 
    microregion: Juruá
    mesoregion: Sudoeste Amazonense
-
    ibge_code: 1301506
    state_code: AM
    osm_id: 332488
    wikidata_id: Q1750090
    name: Envira
    is_capital: 
    wikipedia_pt: pt:Envira
    lon: -70.030412543
    lat: -7.439817544
    no_accents: Envira
    alternative_names: 
    microregion: Juruá
    mesoregion: Sudoeste Amazonense
-
    ibge_code: 1301605
    state_code: AM
    osm_id: 332510
    wikidata_id: Q1793768
    name: Fonte Boa
    is_capital: 
    wikipedia_pt: pt:Fonte Boa (Amazonas)
    lon: -66.0965029898
    lat: -2.5122706845
    no_accents: Fonte Boa
    alternative_names: 
    microregion: Alto Solimões
    mesoregion: Sudoeste Amazonense
-
    ibge_code: 1301654
    state_code: AM
    osm_id: 332508
    wikidata_id: Q1808440
    name: Guajará
    is_capital: 
    wikipedia_pt: pt:Guajará (Amazonas)
    lon: -72.5824305383
    lat: -7.5477744148
    no_accents: Guajara
    alternative_names: 
    microregion: Juruá
    mesoregion: Sudoeste Amazonense
-
    ibge_code: 1301704
    state_code: AM
    osm_id: 332523
    wikidata_id: Q1025760
    name: Humaitá
    is_capital: 
    wikipedia_pt: pt:Humaitá (Amazonas)
    lon: -63.0266980219
    lat: -7.5122249506
    no_accents: Humaita
    alternative_names: 
    microregion: Madeira
    mesoregion: Sul Amazonense
-
    ibge_code: 1301803
    state_code: AM
    osm_id: 332520
    wikidata_id: Q1794374
    name: Ipixuna
    is_capital: 
    wikipedia_pt: pt:Ipixuna
    lon: -71.6944180603
    lat: -7.0509801144
    no_accents: Ipixuna
    alternative_names: 
    microregion: Juruá
    mesoregion: Sudoeste Amazonense
-
    ibge_code: 1301852
    state_code: AM
    osm_id: 332514
    wikidata_id: Q1761947
    name: Iranduba
    is_capital: 
    wikipedia_pt: pt:Iranduba
    lon: -60.1933881661
    lat: -3.2810538776
    no_accents: Iranduba
    alternative_names: 
    microregion: Manaus
    mesoregion: Centro Amazonense
-
    ibge_code: 1301902
    state_code: AM
    osm_id: 332524
    wikidata_id: Q1750426
    name: Itacoatiara
    is_capital: 
    wikipedia_pt: pt:Itacoatiara
    lon: -58.4401754368
    lat: -3.1403788039
    no_accents: Itacoatiara
    alternative_names: 
    microregion: Itacoatiara
    mesoregion: Centro Amazonense
-
    ibge_code: 1301951
    state_code: AM
    osm_id: 332519
    wikidata_id: Q1102558
    name: Itamarati
    is_capital: 
    wikipedia_pt: pt:Itamarati
    lon: -68.247917436
    lat: -6.4377993486
    no_accents: Itamarati
    alternative_names: 
    microregion: Juruá
    mesoregion: Sudoeste Amazonense
-
    ibge_code: 1302009
    state_code: AM
    osm_id: 332516
    wikidata_id: Q1808448
    name: Itapiranga
    is_capital: 
    wikipedia_pt: pt:Itapiranga (Amazonas)
    lon: -58.034545884
    lat: -2.7418427523
    no_accents: Itapiranga
    alternative_names: 
    microregion: Itacoatiara
    mesoregion: Centro Amazonense
-
    ibge_code: 1302108
    state_code: AM
    osm_id: 332494
    wikidata_id: Q1757955
    name: Japurá
    is_capital: 
    wikipedia_pt: pt:Japurá (Amazonas)
    lon: -66.9969034946
    lat: -1.8808448587
    no_accents: Japura
    alternative_names: 
    microregion: Japurá
    mesoregion: Norte Amazonense
-
    ibge_code: 1302207
    state_code: AM
    osm_id: 332490
    wikidata_id: Q1008285
    name: Juruá
    is_capital: 
    wikipedia_pt: pt:Juruá
    lon: -66.0630419255
    lat: -3.4748895989
    no_accents: Jurua
    alternative_names: 
    microregion: Juruá
    mesoregion: Sudoeste Amazonense
-
    ibge_code: 1302306
    state_code: AM
    osm_id: 332506
    wikidata_id: Q684641
    name: Jutaí
    is_capital: 
    wikipedia_pt: pt:Jutaí
    lon: -66.7713275467
    lat: -2.7446464469
    no_accents: Jutai
    alternative_names: 
    microregion: Alto Solimões
    mesoregion: Sudoeste Amazonense
-
    ibge_code: 1302405
    state_code: AM
    osm_id: 332504
    wikidata_id: Q386631
    name: Lábrea
    is_capital: 
    wikipedia_pt: pt:Lábrea
    lon: -64.7947730275
    lat: -7.2619465533
    no_accents: Labrea
    alternative_names: 
    microregion: Purus
    mesoregion: Sul Amazonense
-
    ibge_code: 1302504
    state_code: AM
    osm_id: 332469
    wikidata_id: Q983526
    name: Manacapuru
    is_capital: 
    wikipedia_pt: pt:Manacapuru
    lon: -60.6205894459
    lat: -3.2982780355
    no_accents: Manacapuru
    alternative_names: 
    microregion: Manaus
    mesoregion: Centro Amazonense
-
    ibge_code: 1302553
    state_code: AM
    osm_id: 332467
    wikidata_id: Q1807976
    name: Manaquiri
    is_capital: 
    wikipedia_pt: pt:Manaquiri
    lon: -60.4588813064
    lat: -3.4290796694
    no_accents: Manaquiri
    alternative_names: 
    microregion: Manaus
    mesoregion: Centro Amazonense
-
    ibge_code: 1302603
    state_code: AM
    osm_id: 332493
    wikidata_id: Q40236
    name: Manaus
    is_capital: true
    wikipedia_pt: pt:Manaus
    lon: -60.0233351811
    lat: -3.1346914912
    no_accents: Manaus
    alternative_names: 
    microregion: Manaus
    mesoregion: Centro Amazonense
-
    ibge_code: 1302702
    state_code: AM
    osm_id: 332463
    wikidata_id: Q43490
    name: Manicoré
    is_capital: 
    wikipedia_pt: pt:Manicoré
    lon: -61.2992484089
    lat: -5.8132052612
    no_accents: Manicore
    alternative_names: 
    microregion: Madeira
    mesoregion: Sul Amazonense
-
    ibge_code: 1302801
    state_code: AM
    osm_id: 332479
    wikidata_id: Q1763270
    name: Maraã
    is_capital: 
    wikipedia_pt: pt:Maraã
    lon: -65.5742837032
    lat: -1.8664368773
    no_accents: Maraa
    alternative_names: 
    microregion: Japurá
    mesoregion: Norte Amazonense
-
    ibge_code: 1302900
    state_code: AM
    osm_id: 332475
    wikidata_id: Q1808581
    name: Maués
    is_capital: 
    wikipedia_pt: pt:Maués (Amazonas)
    lon: -57.7150343868
    lat: -3.3864279262
    no_accents: Maues
    alternative_names: 
    microregion: Parintins
    mesoregion: Centro Amazonense
-
    ibge_code: 1303007
    state_code: AM
    osm_id: 332482
    wikidata_id: Q1793306
    name: Nhamundá
    is_capital: 
    wikipedia_pt: pt:Nhamundá
    lon: -56.7167699133
    lat: -2.1889837669
    no_accents: Nhamunda
    alternative_names: 
    microregion: Parintins
    mesoregion: Centro Amazonense
-
    ibge_code: 1303106
    state_code: AM
    osm_id: 332481
    wikidata_id: Q1772535
    name: Nova Olinda do Norte
    is_capital: 
    wikipedia_pt: pt:Nova Olinda do Norte
    lon: -59.093074026
    lat: -3.8875928319
    no_accents: Nova Olinda do Norte
    alternative_names: 
    microregion: Itacoatiara
    mesoregion: Centro Amazonense
-
    ibge_code: 1303205
    state_code: AM
    osm_id: 332468
    wikidata_id: Q1750332
    name: Novo Airão
    is_capital: 
    wikipedia_pt: pt:Novo Airão
    lon: -60.9488107078
    lat: -2.623432459
    no_accents: Novo Airao
    alternative_names: 
    microregion: Rio Negro
    mesoregion: Norte Amazonense
-
    ibge_code: 1303304
    state_code: AM
    osm_id: 332465
    wikidata_id: Q1793549
    name: Novo Aripuanã
    is_capital: 
    wikipedia_pt: pt:Novo Aripuanã
    lon: -60.377045669
    lat: -5.1226693142
    no_accents: Novo Aripuana
    alternative_names: 
    microregion: Madeira
    mesoregion: Sul Amazonense
-
    ibge_code: 1303403
    state_code: AM
    osm_id: 332517
    wikidata_id: Q926713
    name: Parintins
    is_capital: 
    wikipedia_pt: pt:Parintins
    lon: -56.7362921452
    lat: -2.6270525858
    no_accents: Parintins
    alternative_names: 
    microregion: Parintins
    mesoregion: Centro Amazonense
-
    ibge_code: 1303502
    state_code: AM
    osm_id: 332509
    wikidata_id: Q1793494
    name: Pauini
    is_capital: 
    wikipedia_pt: pt:Pauini
    lon: -67.0020974885
    lat: -7.7140436443
    no_accents: Pauini
    alternative_names: 
    microregion: Boca do Acre
    mesoregion: Sul Amazonense
-
    ibge_code: 1303536
    state_code: AM
    osm_id: 332498
    wikidata_id: Q655097
    name: Presidente Figueiredo
    is_capital: 
    wikipedia_pt: pt:Presidente Figueiredo
    lon: -60.0256468345
    lat: -2.0584290852
    no_accents: Presidente Figueiredo
    alternative_names: 
    microregion: Rio Preto da Eva
    mesoregion: Centro Amazonense
-
    ibge_code: 1303569
    state_code: AM
    osm_id: 332500
    wikidata_id: Q1793560
    name: Rio Preto da Eva
    is_capital: 
    wikipedia_pt: pt:Rio Preto da Eva
    lon: -59.7047380942
    lat: -2.6933015416
    no_accents: Rio Preto da Eva
    alternative_names: 
    microregion: Rio Preto da Eva
    mesoregion: Centro Amazonense
-
    ibge_code: 1303601
    state_code: AM
    osm_id: 332484
    wikidata_id: Q1754543
    name: Santa Isabel do Rio Negro
    is_capital: 
    wikipedia_pt: pt:Santa Isabel do Rio Negro
    lon: -65.0200226395
    lat: -0.4166948319
    no_accents: Santa Isabel do Rio Negro
    alternative_names: 
    microregion: Rio Negro
    mesoregion: Norte Amazonense
-
    ibge_code: 1303700
    state_code: AM
    osm_id: 332505
    wikidata_id: Q970224
    name: Santo Antônio do Içá
    is_capital: 
    wikipedia_pt: pt:Santo Antônio do Içá
    lon: -67.9464851439
    lat: -3.1074863092
    no_accents: Santo Antonio do Ica
    alternative_names: 
    microregion: Alto Solimões
    mesoregion: Sudoeste Amazonense
-
    ibge_code: 1303809
    state_code: AM
    osm_id: 332477
    wikidata_id: Q694840
    name: São Gabriel da Cachoeira
    is_capital: 
    wikipedia_pt: pt:São Gabriel da Cachoeira
    lon: -67.0836428963
    lat: -0.1364627881
    no_accents: Sao Gabriel da Cachoeira
    alternative_names: 
    microregion: Rio Negro
    mesoregion: Norte Amazonense
-
    ibge_code: 1303908
    state_code: AM
    osm_id: 332507
    wikidata_id: Q1794983
    name: São Paulo de Olivença
    is_capital: 
    wikipedia_pt: pt:São Paulo de Olivença
    lon: -68.9448534881
    lat: -3.4665096235
    no_accents: Sao Paulo de Olivenca
    alternative_names: 
    microregion: Alto Solimões
    mesoregion: Sudoeste Amazonense
-
    ibge_code: 1303957
    state_code: AM
    osm_id: 332483
    wikidata_id: Q1793440
    name: São Sebastião do Uatumã
    is_capital: 
    wikipedia_pt: pt:São Sebastião do Uatumã
    lon: -57.8703463558
    lat: -2.5701525797
    no_accents: Sao Sebastiao do Uatuma
    alternative_names: 
    microregion: Parintins
    mesoregion: Centro Amazonense
-
    ibge_code: 1304005
    state_code: AM
    osm_id: 332471
    wikidata_id: Q2089673
    name: Silves
    is_capital: 
    wikipedia_pt: pt:Silves (Amazonas)
    lon: -58.2148008608
    lat: -2.8364274297
    no_accents: Silves
    alternative_names: 
    microregion: Itacoatiara
    mesoregion: Centro Amazonense
-
    ibge_code: 1304062
    state_code: AM
    osm_id: 332466
    wikidata_id: Q1750030
    name: Tabatinga
    is_capital: 
    wikipedia_pt: pt:Tabatinga (Amazonas)
    lon: -69.9462443752
    lat: -4.2318836756
    no_accents: Tabatinga
    alternative_names: 
    microregion: Alto Solimões
    mesoregion: Sudoeste Amazonense
-
    ibge_code: 1304104
    state_code: AM
    osm_id: 332485
    wikidata_id: Q1794336
    name: Tapauá
    is_capital: 
    wikipedia_pt: pt:Tapauá
    lon: -63.1870948672
    lat: -5.6242235178
    no_accents: Tapaua
    alternative_names: 
    microregion: Purus
    mesoregion: Sul Amazonense
-
    ibge_code: 1304203
    state_code: AM
    osm_id: 332487
    wikidata_id: Q975545
    name: Tefé
    is_capital: 
    wikipedia_pt: pt:Tefé
    lon: -64.7084196633
    lat: -3.3483724939
    no_accents: Tefe
    alternative_names: 
    microregion: Tefé
    mesoregion: Centro Amazonense
-
    ibge_code: 1304237
    state_code: AM
    osm_id: 332486
    wikidata_id: Q1793355
    name: Tonantins
    is_capital: 
    wikipedia_pt: pt:Tonantins
    lon: -67.7764822807
    lat: -2.8610912498
    no_accents: Tonantins
    alternative_names: 
    microregion: Alto Solimões
    mesoregion: Sudoeste Amazonense
-
    ibge_code: 1304260
    state_code: AM
    osm_id: 332489
    wikidata_id: Q517607
    name: Uarini
    is_capital: 
    wikipedia_pt: pt:Uarini
    lon: -65.1553456402
    lat: -2.9836092427
    no_accents: Uarini
    alternative_names: 
    microregion: Tefé
    mesoregion: Centro Amazonense
-
    ibge_code: 1304302
    state_code: AM
    osm_id: 332470
    wikidata_id: Q1816370
    name: Urucará
    is_capital: 
    wikipedia_pt: pt:Urucará
    lon: -57.7598281746
    lat: -2.5366116718
    no_accents: Urucara
    alternative_names: 
    microregion: Parintins
    mesoregion: Centro Amazonense
-
    ibge_code: 1304401
    state_code: AM
    osm_id: 332472
    wikidata_id: Q1793833
    name: Urucurituba
    is_capital: 
    wikipedia_pt: pt:Urucurituba
    lon: -58.1596410413
    lat: -3.1346331156
    no_accents: Urucurituba
    alternative_names: 
    microregion: Itacoatiara
    mesoregion: Centro Amazonense
-
    ibge_code: 1400027
    state_code: RR
    osm_id: 326296
    wikidata_id: Q1646965
    name: Amajari
    is_capital: 
    wikipedia_pt: pt:Amajari
    lon: -61.4205901727
    lat: 3.6521184454
    no_accents: Amajari
    alternative_names: 
    microregion: Boa Vista
    mesoregion: Norte de Roraima
-
    ibge_code: 1400050
    state_code: RR
    osm_id: 326291
    wikidata_id: Q1763240
    name: Alto Alegre
    is_capital: 
    wikipedia_pt: pt:Alto Alegre (Roraima)
    lon: -61.3140223901
    lat: 2.9938229477
    no_accents: Alto Alegre
    alternative_names: 
    microregion: Boa Vista
    mesoregion: Norte de Roraima
-
    ibge_code: 1400100
    state_code: RR
    osm_id: 326286
    wikidata_id: Q181056
    name: Boa Vista
    is_capital: true
    wikipedia_pt: pt:Boa Vista (Roraima)
    lon: -60.670532673
    lat: 2.8166819191
    no_accents: Boa Vista
    alternative_names: 
    microregion: Boa Vista
    mesoregion: Norte de Roraima
-
    ibge_code: 1400159
    state_code: RR
    osm_id: 326289
    wikidata_id: Q1763254
    name: Bonfim
    is_capital: 
    wikipedia_pt: pt:Bonfim (Roraima)
    lon: -59.8780066289
    lat: 3.3502886191
    no_accents: Bonfim
    alternative_names: 
    microregion: Nordeste de Roraima
    mesoregion: Norte de Roraima
-
    ibge_code: 1400175
    state_code: RR
    osm_id: 326284
    wikidata_id: Q1646914
    name: Cantá
    is_capital: 
    wikipedia_pt: pt:Cantá
    lon: -60.6020628476
    lat: 2.6076663984
    no_accents: Canta
    alternative_names: 
    microregion: Nordeste de Roraima
    mesoregion: Norte de Roraima
-
    ibge_code: 1400209
    state_code: RR
    osm_id: 326293
    wikidata_id: Q772563
    name: Caracaraí
    is_capital: 
    wikipedia_pt: pt:Caracaraí
    lon: -61.1491768701
    lat: 1.8038712473
    no_accents: Caracarai
    alternative_names: 
    microregion: Caracaraí
    mesoregion: Sul de Roraima
-
    ibge_code: 1400233
    state_code: RR
    osm_id: 326290
    wikidata_id: Q748315
    name: Caroebe
    is_capital: 
    wikipedia_pt: pt:Caroebe
    lon: -59.6948100737
    lat: 0.8726745072
    no_accents: Caroebe
    alternative_names: 
    microregion: Sudeste de Roraima
    mesoregion: Sul de Roraima
-
    ibge_code: 1400282
    state_code: RR
    osm_id: 326294
    wikidata_id: Q1786374
    name: Iracema
    is_capital: 
    wikipedia_pt: pt:Iracema (Roraima)
    lon: -61.052258585
    lat: 2.1682147652
    no_accents: Iracema
    alternative_names: 
    microregion: Caracaraí
    mesoregion: Sul de Roraima
-
    ibge_code: 1400308
    state_code: RR
    osm_id: 326297
    wikidata_id: Q1637423
    name: Mucajaí
    is_capital: 
    wikipedia_pt: pt:Mucajaí
    lon: -60.9115185306
    lat: 2.4797722351
    no_accents: Mucajai
    alternative_names: 
    microregion: Caracaraí
    mesoregion: Sul de Roraima
-
    ibge_code: 1400407
    state_code: RR
    osm_id: 326282
    wikidata_id: Q1750038
    name: Normandia
    is_capital: 
    wikipedia_pt: pt:Normandia (Roraima)
    lon: -59.6352062836
    lat: 3.8829782853
    no_accents: Normandia
    alternative_names: 
    microregion: Nordeste de Roraima
    mesoregion: Norte de Roraima
-
    ibge_code: 1400456
    state_code: RR
    osm_id: 326283
    wikidata_id: Q1647045
    name: Pacaraima
    is_capital: 
    wikipedia_pt: pt:Pacaraima
    lon: -61.1473063471
    lat: 4.4752593402
    no_accents: Pacaraima
    alternative_names: 
    microregion: Boa Vista
    mesoregion: Norte de Roraima
-
    ibge_code: 1400472
    state_code: RR
    osm_id: 326292
    wikidata_id: Q1646932
    name: Rorainópolis
    is_capital: 
    wikipedia_pt: pt:Rorainópolis
    lon: -60.425060494
    lat: 0.9371953936
    no_accents: Rorainopolis
    alternative_names: 
    microregion: Sudeste de Roraima
    mesoregion: Sul de Roraima
-
    ibge_code: 1400506
    state_code: RR
    osm_id: 326285
    wikidata_id: Q1646960
    name: São João da Baliza
    is_capital: 
    wikipedia_pt: pt:São João da Baliza
    lon: -59.9060443452
    lat: 0.9471574275
    no_accents: Sao Joao da Baliza
    alternative_names: 
    microregion: Sudeste de Roraima
    mesoregion: Sul de Roraima
-
    ibge_code: 1400605
    state_code: RR
    osm_id: 326295
    wikidata_id: Q1751337
    name: São Luiz
    is_capital: 
    wikipedia_pt: pt:São Luís (Roraima)
    lon: -60.0282667742
    lat: 1.0181116274
    no_accents: Sao Luiz
    alternative_names: 
    microregion: Sudeste de Roraima
    mesoregion: Sul de Roraima
-
    ibge_code: 1400704
    state_code: RR
    osm_id: 326288
    wikidata_id: Q1637434
    name: Uiramutã
    is_capital: 
    wikipedia_pt: pt:Uiramutã
    lon: -60.195716148
    lat: 4.5854403875
    no_accents: Uiramuta
    alternative_names: 
    microregion: Nordeste de Roraima
    mesoregion: Norte de Roraima
-
    ibge_code: 1500107
    state_code: PA
    osm_id: 185660
    wikidata_id: Q1615298
    name: Abaetetuba
    is_capital: 
    wikipedia_pt: pt:Abaetetuba
    lon: -48.8844038207
    lat: -1.7234698628
    no_accents: Abaetetuba
    alternative_names: 
    microregion: Cametá
    mesoregion: Nordeste Paraense
-
    ibge_code: 1500131
    state_code: PA
    osm_id: 185560
    wikidata_id: Q942803
    name: Abel Figueiredo
    is_capital: 
    wikipedia_pt: pt:Abel Figueiredo
    lon: -48.3967621258
    lat: -4.9513908955
    no_accents: Abel Figueiredo
    alternative_names: 
    microregion: Paragominas
    mesoregion: Sudeste Paraense
-
    ibge_code: 1500206
    state_code: PA
    osm_id: 185641
    wikidata_id: Q1804839
    name: Acará
    is_capital: 
    wikipedia_pt: pt:Acará (Pará)
    lon: -48.2004564318
    lat: -1.9634365
    no_accents: Acara
    alternative_names: 
    microregion: Tomé-Açu
    mesoregion: Nordeste Paraense
-
    ibge_code: 1500305
    state_code: PA
    osm_id: 185616
    wikidata_id: Q389536
    name: Afuá
    is_capital: 
    wikipedia_pt: pt:Afuá
    lon: -50.3914275892
    lat: -0.1591716938
    no_accents: Afua
    alternative_names: 
    microregion: Furos de Breves
    mesoregion: Marajó
-
    ibge_code: 1500347
    state_code: PA
    osm_id: 185622
    wikidata_id: Q1804899
    name: Água Azul do Norte
    is_capital: 
    wikipedia_pt: pt:Água Azul do Norte
    lon: -50.4852745073
    lat: -6.8049488674
    no_accents: Agua Azul do Norte
    alternative_names: 
    microregion: Parauapebas
    mesoregion: Sudeste Paraense
-
    ibge_code: 1500404
    state_code: PA
    osm_id: 185674
    wikidata_id: Q2289869
    name: Alenquer
    is_capital: 
    wikipedia_pt: pt:Alenquer (Pará)
    lon: -54.7408623502
    lat: -1.951397505
    no_accents: Alenquer
    alternative_names: 
    microregion: Santarém
    mesoregion: Baixo Amazonas
-
    ibge_code: 1500503
    state_code: PA
    osm_id: 185668
    wikidata_id: Q2342023
    name: Almeirim
    is_capital: 
    wikipedia_pt: pt:Almeirim (Pará)
    lon: -52.5768350868
    lat: -1.5273388028
    no_accents: Almeirim
    alternative_names: 
    microregion: Almeirim
    mesoregion: Baixo Amazonas
-
    ibge_code: 1500602
    state_code: PA
    osm_id: 185554
    wikidata_id: Q434285
    name: Altamira
    is_capital: 
    wikipedia_pt: pt:Altamira
    lon: -52.2143763052
    lat: -3.20565951
    no_accents: Altamira
    alternative_names: 
    microregion: Altamira
    mesoregion: Sudoeste Paraense
-
    ibge_code: 1500701
    state_code: PA
    osm_id: 185578
    wikidata_id: Q1804346
    name: Anajás
    is_capital: 
    wikipedia_pt: pt:Anajás
    lon: -49.9450010405
    lat: -0.984451394
    no_accents: Anajas
    alternative_names: 
    microregion: Furos de Breves
    mesoregion: Marajó
-
    ibge_code: 1500800
    state_code: PA
    osm_id: 185610
    wikidata_id: Q485887
    name: Ananindeua
    is_capital: 
    wikipedia_pt: pt:Ananindeua
    lon: -48.3720666542
    lat: -1.3687135683
    no_accents: Ananindeua
    alternative_names: 
    microregion: Belém
    mesoregion: Metropolitana de Belém
-
    ibge_code: 1500859
    state_code: PA
    osm_id: 185572
    wikidata_id: Q486142
    name: Anapu
    is_capital: 
    wikipedia_pt: pt:Anapu
    lon: -51.2016217985
    lat: -3.4761046351
    no_accents: Anapu
    alternative_names: 
    microregion: Altamira
    mesoregion: Sudoeste Paraense
-
    ibge_code: 1500909
    state_code: PA
    osm_id: 90129
    wikidata_id: Q1804338
    name: Augusto Corrêa
    is_capital: 
    wikipedia_pt: pt:Augusto Corrêa
    lon: -46.6416457857
    lat: -1.02292101
    no_accents: Augusto Correa
    alternative_names: 
    microregion: Bragantina
    mesoregion: Nordeste Paraense
-
    ibge_code: 1500958
    state_code: PA
    osm_id: 185553
    wikidata_id: Q2008798
    name: Aurora do Pará
    is_capital: 
    wikipedia_pt: pt:Aurora do Pará
    lon: -47.5561746036
    lat: -2.1293760132
    no_accents: Aurora do Para
    alternative_names: 
    microregion: Guamá
    mesoregion: Nordeste Paraense
-
    ibge_code: 1501006
    state_code: PA
    osm_id: 185570
    wikidata_id: Q790342
    name: Aveiro
    is_capital: 
    wikipedia_pt: pt:Aveiro (Pará)
    lon: -55.3307343898
    lat: -3.6055952593
    no_accents: Aveiro
    alternative_names: 
    microregion: Itaituba
    mesoregion: Sudoeste Paraense
-
    ibge_code: 1501105
    state_code: PA
    osm_id: 185636
    wikidata_id: Q1804902
    name: Bagre
    is_capital: 
    wikipedia_pt: pt:Bagre (Pará)
    lon: -50.2219869206
    lat: -1.8898080604
    no_accents: Bagre
    alternative_names: 
    microregion: Portel
    mesoregion: Marajó
-
    ibge_code: 1501204
    state_code: PA
    osm_id: 185671
    wikidata_id: Q804068
    name: Baião
    is_capital: 
    wikipedia_pt: pt:Baião (Pará)
    lon: -49.6727533733
    lat: -2.7919618614
    no_accents: Baiao
    alternative_names: 
    microregion: Cametá
    mesoregion: Nordeste Paraense
-
    ibge_code: 1501253
    state_code: PA
    osm_id: 185658
    wikidata_id: Q1804877
    name: Bannach
    is_capital: 
    wikipedia_pt: pt:Bannach
    lon: -50.4060471215
    lat: -7.3510721924
    no_accents: Bannach
    alternative_names: 
    microregion: São Félix do Xingu
    mesoregion: Sudeste Paraense
-
    ibge_code: 1501303
    state_code: PA
    osm_id: 185661
    wikidata_id: Q2009595
    name: Barcarena
    is_capital: 
    wikipedia_pt: pt:Barcarena (Pará)
    lon: -48.6270728925
    lat: -1.505767005
    no_accents: Barcarena
    alternative_names: 
    microregion: Belém
    mesoregion: Metropolitana de Belém
-
    ibge_code: 1501402
    state_code: PA
    osm_id: 185567
    wikidata_id: Q47593
    name: Belém
    is_capital: true
    wikipedia_pt: pt:Belém (Pará)
    lon: -48.4878256875
    lat: -1.459845
    no_accents: Belem
    alternative_names: 
    microregion: Belém
    mesoregion: Metropolitana de Belém
-
    ibge_code: 1501451
    state_code: PA
    osm_id: 185582
    wikidata_id: Q609824
    name: Belterra
    is_capital: 
    wikipedia_pt: pt:Belterra
    lon: -54.9426747393
    lat: -2.6490201695
    no_accents: Belterra
    alternative_names: 
    microregion: Santarém
    mesoregion: Baixo Amazonas
-
    ibge_code: 1501501
    state_code: PA
    osm_id: 185571
    wikidata_id: Q1804361
    name: Benevides
    is_capital: 
    wikipedia_pt: pt:Benevides
    lon: -48.2418364506
    lat: -1.361437515
    no_accents: Benevides
    alternative_names: 
    microregion: Belém
    mesoregion: Metropolitana de Belém
-
    ibge_code: 1501576
    state_code: PA
    osm_id: 185590
    wikidata_id: Q2130429
    name: Bom Jesus do Tocantins
    is_capital: 
    wikipedia_pt: pt:Bom Jesus do Tocantins (Pará)
    lon: -48.5990399591
    lat: -5.0473627043
    no_accents: Bom Jesus do Tocantins
    alternative_names: 
    microregion: Paragominas
    mesoregion: Sudeste Paraense
-
    ibge_code: 1501600
    state_code: PA
    osm_id: 90139
    wikidata_id: Q2078868
    name: Bonito
    is_capital: 
    wikipedia_pt: pt:Bonito (Pará)
    lon: -47.3058918169
    lat: -1.3674743569
    no_accents: Bonito
    alternative_names: 
    microregion: Bragantina
    mesoregion: Nordeste Paraense
-
    ibge_code: 1501709
    state_code: PA
    osm_id: 90128
    wikidata_id: Q320487
    name: Bragança
    is_capital: 
    wikipedia_pt: pt:Bragança (Pará)
    lon: -46.7657542137
    lat: -1.0535239562
    no_accents: Braganca
    alternative_names: 
    microregion: Bragantina
    mesoregion: Nordeste Paraense
-
    ibge_code: 1501725
    state_code: PA
    osm_id: 185604
    wikidata_id: Q2008779
    name: Brasil Novo
    is_capital: 
    wikipedia_pt: pt:Brasil Novo (Pará)
    lon: -52.5434411923
    lat: -3.297803704
    no_accents: Brasil Novo
    alternative_names: 
    microregion: Altamira
    mesoregion: Sudoeste Paraense
-
    ibge_code: 1501758
    state_code: PA
    osm_id: 185595
    wikidata_id: Q1975881
    name: Brejo Grande do Araguaia
    is_capital: 
    wikipedia_pt: pt:Brejo Grande do Araguaia
    lon: -48.4057604224
    lat: -5.7072961538
    no_accents: Brejo Grande do Araguaia
    alternative_names: 
    microregion: Marabá
    mesoregion: Sudeste Paraense
-
    ibge_code: 1501782
    state_code: PA
    osm_id: 185672
    wikidata_id: Q2008139
    name: Breu Branco
    is_capital: 
    wikipedia_pt: pt:Breu Branco
    lon: -49.5698796833
    lat: -3.7781354129
    no_accents: Breu Branco
    alternative_names: 
    microregion: Tucuruí
    mesoregion: Sudeste Paraense
-
    ibge_code: 1501808
    state_code: PA
    osm_id: 185663
    wikidata_id: Q1804770
    name: Breves
    is_capital: 
    wikipedia_pt: pt:Breves
    lon: -50.480894799
    lat: -1.6907365
    no_accents: Breves
    alternative_names: 
    microregion: Furos de Breves
    mesoregion: Marajó
-
    ibge_code: 1501907
    state_code: PA
    osm_id: 185609
    wikidata_id: Q2009108
    name: Bujaru
    is_capital: 
    wikipedia_pt: pt:Bujaru
    lon: -48.0358750144
    lat: -1.5139914623
    no_accents: Bujaru
    alternative_names: 
    microregion: Castanhal
    mesoregion: Metropolitana de Belém
-
    ibge_code: 1501956
    state_code: PA
    osm_id: 185645
    wikidata_id: Q947745
    name: Cachoeira do Piriá
    is_capital: 
    wikipedia_pt: pt:Cachoeira do Piriá
    lon: -46.5473914166
    lat: -1.7528970049
    no_accents: Cachoeira do Piria
    alternative_names: 
    microregion: Guamá
    mesoregion: Nordeste Paraense
-
    ibge_code: 1502004
    state_code: PA
    osm_id: 185614
    wikidata_id: Q1804813
    name: Cachoeira do Arari
    is_capital: 
    wikipedia_pt: pt:Cachoeira do Arari
    lon: -48.9606675774
    lat: -1.0087862656
    no_accents: Cachoeira do Arari
    alternative_names: 
    microregion: Arari
    mesoregion: Marajó
-
    ibge_code: 1502103
    state_code: PA
    osm_id: 185644
    wikidata_id: Q1805206
    name: Cametá
    is_capital: 
    wikipedia_pt: pt:Cametá
    lon: -49.497830169
    lat: -2.24683848
    no_accents: Cameta
    alternative_names: 
    microregion: Cametá
    mesoregion: Nordeste Paraense
-
    ibge_code: 1502152
    state_code: PA
    osm_id: 185626
    wikidata_id: Q2009474
    name: Canaã dos Carajás
    is_capital: 
    wikipedia_pt: pt:Canaã dos Carajás
    lon: -49.8489584319
    lat: -6.5321966156
    no_accents: Canaa dos Carajas
    alternative_names: 
    microregion: Parauapebas
    mesoregion: Sudeste Paraense
-
    ibge_code: 1502202
    state_code: PA
    osm_id: 90136
    wikidata_id: Q1947031
    name: Capanema
    is_capital: 
    wikipedia_pt: pt:Capanema (Pará)
    lon: -47.1751261231
    lat: -1.192441995
    no_accents: Capanema
    alternative_names: 
    microregion: Bragantina
    mesoregion: Nordeste Paraense
-
    ibge_code: 1502301
    state_code: PA
    osm_id: 2702845
    wikidata_id: Q955914
    name: Capitão Poço
    is_capital: 
    wikipedia_pt: pt:Capitão Poço
    lon: -47.0628253774
    lat: -1.7461872932
    no_accents: Capitao Poco
    alternative_names: 
    microregion: Guamá
    mesoregion: Nordeste Paraense
-
    ibge_code: 1502400
    state_code: PA
    osm_id: 185664
    wikidata_id: Q984581
    name: Castanhal
    is_capital: 
    wikipedia_pt: pt:Castanhal
    lon: -47.9266431419
    lat: -1.295756805
    no_accents: Castanhal
    alternative_names: 
    microregion: Castanhal
    mesoregion: Metropolitana de Belém
-
    ibge_code: 1502509
    state_code: PA
    osm_id: 185548
    wikidata_id: Q1899080
    name: Chaves
    is_capital: 
    wikipedia_pt: pt:Chaves (Pará)
    lon: -49.9893186051
    lat: -0.1624372901
    no_accents: Chaves
    alternative_names: 
    microregion: Arari
    mesoregion: Marajó
-
    ibge_code: 1502608
    state_code: PA
    osm_id: 185598
    wikidata_id: Q2008619
    name: Colares
    is_capital: 
    wikipedia_pt: pt:Colares (Pará)
    lon: -48.2887284319
    lat: -0.932091244
    no_accents: Colares
    alternative_names: 
    microregion: Salgado
    mesoregion: Nordeste Paraense
-
    ibge_code: 1502707
    state_code: PA
    osm_id: 185643
    wikidata_id: Q1788037
    name: Conceição do Araguaia
    is_capital: 
    wikipedia_pt: pt:Conceição do Araguaia
    lon: -49.2645008125
    lat: -8.26486353
    no_accents: Conceicao do Araguaia
    alternative_names: 
    microregion: Conceição do Araguaia
    mesoregion: Sudeste Paraense
-
    ibge_code: 1502756
    state_code: PA
    osm_id: 185673
    wikidata_id: Q2008125
    name: Concórdia do Pará
    is_capital: 
    wikipedia_pt: pt:Concórdia do Pará
    lon: -47.949886939
    lat: -1.9845214628
    no_accents: Concordia do Para
    alternative_names: 
    microregion: Tomé-Açu
    mesoregion: Nordeste Paraense
-
    ibge_code: 1502764
    state_code: PA
    osm_id: 185615
    wikidata_id: Q2008271
    name: Cumaru do Norte
    is_capital: 
    wikipedia_pt: pt:Cumaru do Norte
    lon: -50.7715783775
    lat: -7.8111065369
    no_accents: Cumaru do Norte
    alternative_names: 
    microregion: São Félix do Xingu
    mesoregion: Sudeste Paraense
-
    ibge_code: 1502772
    state_code: PA
    osm_id: 185662
    wikidata_id: Q2008449
    name: Curionópolis
    is_capital: 
    wikipedia_pt: pt:Curionópolis
    lon: -49.602214225
    lat: -6.0968199522
    no_accents: Curionopolis
    alternative_names: 
    microregion: Parauapebas
    mesoregion: Sudeste Paraense
-
    ibge_code: 1502806
    state_code: PA
    osm_id: 185634
    wikidata_id: Q2011907
    name: Curralinho
    is_capital: 
    wikipedia_pt: pt:Curralinho
    lon: -49.7915228471
    lat: -1.8094234197
    no_accents: Curralinho
    alternative_names: 
    microregion: Furos de Breves
    mesoregion: Marajó
-
    ibge_code: 1502855
    state_code: PA
    osm_id: 185607
    wikidata_id: Q2008226
    name: Curuá
    is_capital: 
    wikipedia_pt: pt:Curuá (Pará)
    lon: -55.1196786087
    lat: -1.8899287043
    no_accents: Curua
    alternative_names: 
    microregion: Santarém
    mesoregion: Baixo Amazonas
-
    ibge_code: 1502905
    state_code: PA
    osm_id: 185576
    wikidata_id: Q1814514
    name: Curuçá
    is_capital: 
    wikipedia_pt: pt:Curuçá
    lon: -47.8512650859
    lat: -0.73249551
    no_accents: Curuca
    alternative_names: 
    microregion: Salgado
    mesoregion: Nordeste Paraense
-
    ibge_code: 1502939
    state_code: PA
    osm_id: 185640
    wikidata_id: Q2008541
    name: Dom Eliseu
    is_capital: 
    wikipedia_pt: pt:Dom Eliseu
    lon: -47.555914886
    lat: -4.29077772
    no_accents: Dom Eliseu
    alternative_names: 
    microregion: Paragominas
    mesoregion: Sudeste Paraense
-
    ibge_code: 1502954
    state_code: PA
    osm_id: 185565
    wikidata_id: Q2008261
    name: Eldorado do Carajás
    is_capital: 
    wikipedia_pt: pt:Eldorado do Carajás
    lon: -49.3739519422
    lat: -6.1035251611
    no_accents: Eldorado do Carajas
    alternative_names: 
    microregion: Parauapebas
    mesoregion: Sudeste Paraense
-
    ibge_code: 1503002
    state_code: PA
    osm_id: 185656
    wikidata_id: Q2246005
    name: Faro
    is_capital: 
    wikipedia_pt: pt:Faro (Pará)
    lon: -56.7457530173
    lat: -2.1729752419
    no_accents: Faro
    alternative_names: 
    microregion: Óbidos
    mesoregion: Baixo Amazonas
-
    ibge_code: 1503044
    state_code: PA
    osm_id: 185558
    wikidata_id: Q2008493
    name: Floresta do Araguaia
    is_capital: 
    wikipedia_pt: pt:Floresta do Araguaia
    lon: -49.6975784122
    lat: -7.5587008724
    no_accents: Floresta do Araguaia
    alternative_names: 
    microregion: Conceição do Araguaia
    mesoregion: Sudeste Paraense
-
    ibge_code: 1503077
    state_code: PA
    osm_id: 185602
    wikidata_id: Q2008750
    name: Garrafão do Norte
    is_capital: 
    wikipedia_pt: pt:Garrafão do Norte
    lon: -47.0450460173
    lat: -1.9316970431
    no_accents: Garrafao do Norte
    alternative_names: 
    microregion: Guamá
    mesoregion: Nordeste Paraense
-
    ibge_code: 1503093
    state_code: PA
    osm_id: 185650
    wikidata_id: Q2008317
    name: Goianésia do Pará
    is_capital: 
    wikipedia_pt: pt:Goianésia do Pará
    lon: -49.1010449237
    lat: -3.842468
    no_accents: Goianesia do Para
    alternative_names: 
    microregion: Paragominas
    mesoregion: Sudeste Paraense
-
    ibge_code: 1503101
    state_code: PA
    osm_id: 185621
    wikidata_id: Q2011913
    name: Gurupá
    is_capital: 
    wikipedia_pt: pt:Gurupá
    lon: -51.6436957234
    lat: -1.404918
    no_accents: Gurupa
    alternative_names: 
    microregion: Portel
    mesoregion: Marajó
-
    ibge_code: 1503200
    state_code: PA
    osm_id: 185585
    wikidata_id: Q2009058
    name: Igarapé-Açu
    is_capital: 
    wikipedia_pt: pt:Igarapé-Açu
    lon: -47.622375492
    lat: -1.124322
    no_accents: Igarape-Acu
    alternative_names: 
    microregion: Bragantina
    mesoregion: Nordeste Paraense
-
    ibge_code: 1503309
    state_code: PA
    osm_id: 185630
    wikidata_id: Q651613
    name: Igarapé-Miri
    is_capital: 
    wikipedia_pt: pt:Igarapé-Miri
    lon: -48.9622994689
    lat: -1.983116
    no_accents: Igarape-Miri
    alternative_names: 
    microregion: Cametá
    mesoregion: Nordeste Paraense
-
    ibge_code: 1503408
    state_code: PA
    osm_id: 185666
    wikidata_id: Q1880531
    name: Inhangapi
    is_capital: 
    wikipedia_pt: pt:Inhangapi
    lon: -47.9133927466
    lat: -1.4265819809
    no_accents: Inhangapi
    alternative_names: 
    microregion: Castanhal
    mesoregion: Metropolitana de Belém
-
    ibge_code: 1503457
    state_code: PA
    osm_id: 185574
    wikidata_id: Q675175
    name: Ipixuna do Pará
    is_capital: 
    wikipedia_pt: pt:Ipixuna do Pará
    lon: -47.4997175888
    lat: -2.5575285
    no_accents: Ipixuna do Para
    alternative_names: 
    microregion: Guamá
    mesoregion: Nordeste Paraense
-
    ibge_code: 1503507
    state_code: PA
    osm_id: 185563
    wikidata_id: Q2008410
    name: Irituia
    is_capital: 
    wikipedia_pt: pt:Irituia
    lon: -47.4407556128
    lat: -1.771474995
    no_accents: Irituia
    alternative_names: 
    microregion: Guamá
    mesoregion: Nordeste Paraense
-
    ibge_code: 1503606
    state_code: PA
    osm_id: 185625
    wikidata_id: Q655734
    name: Itaituba
    is_capital: 
    wikipedia_pt: pt:Itaituba
    lon: -55.9900488573
    lat: -4.26372948
    no_accents: Itaituba
    alternative_names: 
    microregion: Itaituba
    mesoregion: Sudoeste Paraense
-
    ibge_code: 1503705
    state_code: PA
    osm_id: 185601
    wikidata_id: Q2008167
    name: Itupiranga
    is_capital: 
    wikipedia_pt: pt:Itupiranga
    lon: -49.3244258613
    lat: -5.1288370264
    no_accents: Itupiranga
    alternative_names: 
    microregion: Tucuruí
    mesoregion: Sudeste Paraense
-
    ibge_code: 1503754
    state_code: PA
    osm_id: 185577
    wikidata_id: Q1805252
    name: Jacareacanga
    is_capital: 
    wikipedia_pt: pt:Jacareacanga
    lon: -57.7663398584
    lat: -6.2235517314
    no_accents: Jacareacanga
    alternative_names: 
    microregion: Itaituba
    mesoregion: Sudoeste Paraense
-
    ibge_code: 1503804
    state_code: PA
    osm_id: 185620
    wikidata_id: Q1967407
    name: Jacundá
    is_capital: 
    wikipedia_pt: pt:Jacundá (Pará)
    lon: -49.1127815626
    lat: -4.448405475
    no_accents: Jacunda
    alternative_names: 
    microregion: Tucuruí
    mesoregion: Sudeste Paraense
-
    ibge_code: 1503903
    state_code: PA
    osm_id: 185618
    wikidata_id: Q1008242
    name: Juruti
    is_capital: 
    wikipedia_pt: pt:Juruti
    lon: -56.0949976884
    lat: -2.155252995
    no_accents: Juruti
    alternative_names: 
    microregion: Óbidos
    mesoregion: Baixo Amazonas
-
    ibge_code: 1504000
    state_code: PA
    osm_id: 185657
    wikidata_id: Q2008564
    name: Limoeiro do Ajuru
    is_capital: 
    wikipedia_pt: pt:Limoeiro do Ajuru
    lon: -49.3815339012
    lat: -1.8919485
    no_accents: Limoeiro do Ajuru
    alternative_names: 
    microregion: Cametá
    mesoregion: Nordeste Paraense
-
    ibge_code: 1504059
    state_code: PA
    osm_id: 185589
    wikidata_id: Q2008401
    name: Mãe do Rio
    is_capital: 
    wikipedia_pt: pt:Mãe do Rio
    lon: -47.5522901795
    lat: -2.0477074408
    no_accents: Mae do Rio
    alternative_names: 
    microregion: Guamá
    mesoregion: Nordeste Paraense
-
    ibge_code: 1504109
    state_code: PA
    osm_id: 185592
    wikidata_id: Q2008546
    name: Magalhães Barata
    is_capital: 
    wikipedia_pt: pt:Magalhães Barata
    lon: -47.5991818965
    lat: -0.795850156
    no_accents: Magalhaes Barata
    alternative_names: 
    microregion: Salgado
    mesoregion: Nordeste Paraense
-
    ibge_code: 1504208
    state_code: PA
    osm_id: 185659
    wikidata_id: Q509818
    name: Marabá
    is_capital: 
    wikipedia_pt: pt:Marabá
    lon: -49.1420253334
    lat: -5.3526057631
    no_accents: Maraba
    alternative_names: 
    microregion: Marabá
    mesoregion: Sudeste Paraense
-
    ibge_code: 1504307
    state_code: PA
    osm_id: 185588
    wikidata_id: Q2089279
    name: Maracanã
    is_capital: 
    wikipedia_pt: pt:Maracanã (Pará)
    lon: -47.4552679594
    lat: -0.76241946
    no_accents: Maracana
    alternative_names: 
    microregion: Salgado
    mesoregion: Nordeste Paraense
-
    ibge_code: 1504406
    state_code: PA
    osm_id: 185649
    wikidata_id: Q1990477
    name: Marapanim
    is_capital: 
    wikipedia_pt: pt:Marapanim
    lon: -47.7025487538
    lat: -0.7121509963
    no_accents: Marapanim
    alternative_names: 
    microregion: Salgado
    mesoregion: Nordeste Paraense
-
    ibge_code: 1504422
    state_code: PA
    osm_id: 185631
    wikidata_id: Q1805166
    name: Marituba
    is_capital: 
    wikipedia_pt: pt:Marituba
    lon: -48.3405358778
    lat: -1.3464172656
    no_accents: Marituba
    alternative_names: 
    microregion: Belém
    mesoregion: Metropolitana de Belém
-
    ibge_code: 1504455
    state_code: PA
    osm_id: 185581
    wikidata_id: Q2009048
    name: Medicilândia
    is_capital: 
    wikipedia_pt: pt:Medicilândia
    lon: -52.8883453507
    lat: -3.4454174122
    no_accents: Medicilandia
    alternative_names: 
    microregion: Altamira
    mesoregion: Sudoeste Paraense
-
    ibge_code: 1504505
    state_code: PA
    osm_id: 185584
    wikidata_id: Q2011923
    name: Melgaço
    is_capital: 
    wikipedia_pt: pt:Melgaço (Pará)
    lon: -50.7174646977
    lat: -1.8034466986
    no_accents: Melgaco
    alternative_names: 
    microregion: Portel
    mesoregion: Marajó
-
    ibge_code: 1504604
    state_code: PA
    osm_id: 185623
    wikidata_id: Q2008596
    name: Mocajuba
    is_capital: 
    wikipedia_pt: pt:Mocajuba
    lon: -49.5090234613
    lat: -2.5828729733
    no_accents: Mocajuba
    alternative_names: 
    microregion: Cametá
    mesoregion: Nordeste Paraense
-
    ibge_code: 1504703
    state_code: PA
    osm_id: 185561
    wikidata_id: Q2008213
    name: Moju
    is_capital: 
    wikipedia_pt: pt:Moju
    lon: -48.7671991274
    lat: -1.885889
    no_accents: Moju
    alternative_names: 
    microregion: Tomé-Açu
    mesoregion: Nordeste Paraense
-
    ibge_code: 1504752
    state_code: PA
    osm_id: 3049385
    wikidata_id: Q10331562
    name: Mojuí dos Campos
    is_capital: 
    wikipedia_pt: pt:Mojuí dos Campos
    lon: -54.64326888
    lat: -2.68245777
    no_accents: Mojui dos Campos
    alternative_names: 
    microregion: Santarém
    mesoregion: Baixo Amazonas
-
    ibge_code: 1504802
    state_code: PA
    osm_id: 185593
    wikidata_id: Q2289897
    name: Monte Alegre
    is_capital: 
    wikipedia_pt: pt:Monte Alegre (Pará)
    lon: -54.0733747256
    lat: -2.003328
    no_accents: Monte Alegre
    alternative_names: 
    microregion: Santarém
    mesoregion: Baixo Amazonas
-
    ibge_code: 1504901
    state_code: PA
    osm_id: 185606
    wikidata_id: Q1804369
    name: Muaná
    is_capital: 
    wikipedia_pt: pt:Muaná
    lon: -49.2168324425
    lat: -1.5300262084
    no_accents: Muana
    alternative_names: 
    microregion: Arari
    mesoregion: Marajó
-
    ibge_code: 1504950
    state_code: PA
    osm_id: 185573
    wikidata_id: Q1121422
    name: Nova Esperança do Piriá
    is_capital: 
    wikipedia_pt: pt:Nova Esperança do Piriá
    lon: -46.9620928837
    lat: -2.267625989
    no_accents: Nova Esperanca do Piria
    alternative_names: 
    microregion: Guamá
    mesoregion: Nordeste Paraense
-
    ibge_code: 1504976
    state_code: PA
    osm_id: 185679
    wikidata_id: Q728098
    name: Nova Ipixuna
    is_capital: 
    wikipedia_pt: pt:Nova Ipixuna
    lon: -49.079886938
    lat: -4.923086307
    no_accents: Nova Ipixuna
    alternative_names: 
    microregion: Tucuruí
    mesoregion: Sudeste Paraense
-
    ibge_code: 1505007
    state_code: PA
    osm_id: 2702846
    wikidata_id: Q2009430
    name: Nova Timboteua
    is_capital: 
    wikipedia_pt: pt:Nova Timboteua
    lon: -47.3932022765
    lat: -1.2041436475
    no_accents: Nova Timboteua
    alternative_names: 
    microregion: Bragantina
    mesoregion: Nordeste Paraense
-
    ibge_code: 1505031
    state_code: PA
    osm_id: 185651
    wikidata_id: Q1787759
    name: Novo Progresso
    is_capital: 
    wikipedia_pt: pt:Novo Progresso
    lon: -55.419870118
    lat: -7.0348359133
    no_accents: Novo Progresso
    alternative_names: 
    microregion: Itaituba
    mesoregion: Sudoeste Paraense
-
    ibge_code: 1505064
    state_code: PA
    osm_id: 185647
    wikidata_id: Q769811
    name: Novo Repartimento
    is_capital: 
    wikipedia_pt: pt:Novo Repartimento
    lon: -49.9486382443
    lat: -4.2481485
    no_accents: Novo Repartimento
    alternative_names: 
    microregion: Tucuruí
    mesoregion: Sudeste Paraense
-
    ibge_code: 1505106
    state_code: PA
    osm_id: 185569
    wikidata_id: Q577167
    name: Óbidos
    is_capital: 
    wikipedia_pt: pt:Óbidos (Pará)
    lon: -55.5163235097
    lat: -1.9092354959
    no_accents: Obidos
    alternative_names: 
    microregion: Óbidos
    mesoregion: Baixo Amazonas
-
    ibge_code: 1505205
    state_code: PA
    osm_id: 185638
    wikidata_id: Q2008580
    name: Oeiras do Pará
    is_capital: 
    wikipedia_pt: pt:Oeiras do Pará
    lon: -49.8551061088
    lat: -2.004734
    no_accents: Oeiras do Para
    alternative_names: 
    microregion: Cametá
    mesoregion: Nordeste Paraense
-
    ibge_code: 1505304
    state_code: PA
    osm_id: 185652
    wikidata_id: Q2011919
    name: Oriximiná
    is_capital: 
    wikipedia_pt: pt:Oriximiná
    lon: -55.8627995152
    lat: -1.7637535
    no_accents: Oriximina
    alternative_names: 
    microregion: Óbidos
    mesoregion: Baixo Amazonas
-
    ibge_code: 1505403
    state_code: PA
    osm_id: 90140
    wikidata_id: Q1829502
    name: Ourém
    is_capital: 
    wikipedia_pt: pt:Ourém (Pará)
    lon: -47.1176193629
    lat: -1.5489471423
    no_accents: Ourem
    alternative_names: 
    microregion: Guamá
    mesoregion: Nordeste Paraense
-
    ibge_code: 1505437
    state_code: PA
    osm_id: 185605
    wikidata_id: Q2008237
    name: Ourilândia do Norte
    is_capital: 
    wikipedia_pt: pt:Ourilândia do Norte
    lon: -51.0908327747
    lat: -6.7406170864
    no_accents: Ourilandia do Norte
    alternative_names: 
    microregion: São Félix do Xingu
    mesoregion: Sudeste Paraense
-
    ibge_code: 1505486
    state_code: PA
    osm_id: 185552
    wikidata_id: Q592117
    name: Pacajá
    is_capital: 
    wikipedia_pt: pt:Pacajá
    lon: -50.6348408304
    lat: -3.8303057038
    no_accents: Pacaja
    alternative_names: 
    microregion: Altamira
    mesoregion: Sudoeste Paraense
-
    ibge_code: 1505494
    state_code: PA
    osm_id: 185566
    wikidata_id: Q2009230
    name: Palestina do Pará
    is_capital: 
    wikipedia_pt: pt:Palestina do Pará
    lon: -48.3217937262
    lat: -5.7499341062
    no_accents: Palestina do Para
    alternative_names: 
    microregion: Marabá
    mesoregion: Sudeste Paraense
-
    ibge_code: 1505502
    state_code: PA
    osm_id: 185667
    wikidata_id: Q935005
    name: Paragominas
    is_capital: 
    wikipedia_pt: pt:Paragominas
    lon: -47.3569615611
    lat: -2.9941905
    no_accents: Paragominas
    alternative_names: 
    microregion: Paragominas
    mesoregion: Sudeste Paraense
-
    ibge_code: 1505536
    state_code: PA
    osm_id: 185575
    wikidata_id: Q1806100
    name: Parauapebas
    is_capital: 
    wikipedia_pt: pt:Parauapebas
    lon: -49.9007806343
    lat: -6.0727298876
    no_accents: Parauapebas
    alternative_names: 
    microregion: Parauapebas
    mesoregion: Sudeste Paraense
-
    ibge_code: 1505551
    state_code: PA
    osm_id: 185608
    wikidata_id: Q2008624
    name: 'Pau d''Arco'
    is_capital: 
    wikipedia_pt: 'pt:Pau-d''Arco (Pará)'
    lon: -50.0482755319
    lat: -7.836794404
    no_accents: 'Pau d''Arco'
    alternative_names: 
    microregion: Redenção
    mesoregion: Sudeste Paraense
-
    ibge_code: 1505601
    state_code: PA
    osm_id: 90135
    wikidata_id: Q2009222
    name: Peixe-Boi
    is_capital: 
    wikipedia_pt: pt:Peixe-Boi (Pará)
    lon: -47.3179270216
    lat: -1.1895692408
    no_accents: Peixe-Boi
    alternative_names: 
    microregion: Bragantina
    mesoregion: Nordeste Paraense
-
    ibge_code: 1505635
    state_code: PA
    osm_id: 185629
    wikidata_id: Q2008277
    name: Piçarra
    is_capital: 
    wikipedia_pt: pt:Piçarra
    lon: -48.8684006672
    lat: -6.4536762346
    no_accents: Picarra
    alternative_names: 
    microregion: Redenção
    mesoregion: Sudeste Paraense
-
    ibge_code: 1505650
    state_code: PA
    osm_id: 185676
    wikidata_id: Q602405
    name: Placas
    is_capital: 
    wikipedia_pt: pt:Placas
    lon: -54.2169681313
    lat: -3.8673155621
    no_accents: Placas
    alternative_names: 
    microregion: Santarém
    mesoregion: Baixo Amazonas
-
    ibge_code: 1505700
    state_code: PA
    osm_id: 185678
    wikidata_id: Q1804377
    name: Ponta de Pedras
    is_capital: 
    wikipedia_pt: pt:Ponta de Pedras
    lon: -48.87178556
    lat: -1.3965999975
    no_accents: Ponta de Pedras
    alternative_names: 
    microregion: Arari
    mesoregion: Marajó
-
    ibge_code: 1505809
    state_code: PA
    osm_id: 185632
    wikidata_id: Q2089210
    name: Portel
    is_capital: 
    wikipedia_pt: pt:Portel (Pará)
    lon: -50.8224904422
    lat: -1.936451
    no_accents: Portel
    alternative_names: 
    microregion: Portel
    mesoregion: Marajó
-
    ibge_code: 1505908
    state_code: PA
    osm_id: 185654
    wikidata_id: Q2011894
    name: Porto de Moz
    is_capital: 
    wikipedia_pt: pt:Porto de Moz
    lon: -52.242476919
    lat: -1.7460900888
    no_accents: Porto de Moz
    alternative_names: 
    microregion: Almeirim
    mesoregion: Baixo Amazonas
-
    ibge_code: 1506005
    state_code: PA
    osm_id: 185568
    wikidata_id: Q2009663
    name: Prainha
    is_capital: 
    wikipedia_pt: pt:Prainha (Pará)
    lon: -53.4818139408
    lat: -1.8056945
    no_accents: Prainha
    alternative_names: 
    microregion: Santarém
    mesoregion: Baixo Amazonas
-
    ibge_code: 1506104
    state_code: PA
    osm_id: 90134
    wikidata_id: Q2329733
    name: Primavera
    is_capital: 
    wikipedia_pt: pt:Primavera (Pará)
    lon: -47.1172512589
    lat: -0.9401115159
    no_accents: Primavera
    alternative_names: 
    microregion: Bragantina
    mesoregion: Nordeste Paraense
-
    ibge_code: 1506112
    state_code: PA
    osm_id: 90132
    wikidata_id: Q2008521
    name: Quatipuru
    is_capital: 
    wikipedia_pt: pt:Quatipuru
    lon: -47.0067869936
    lat: -0.9001158537
    no_accents: Quatipuru
    alternative_names: 
    microregion: Bragantina
    mesoregion: Nordeste Paraense
-
    ibge_code: 1506138
    state_code: PA
    osm_id: 185557
    wikidata_id: Q2381693
    name: Redenção
    is_capital: 
    wikipedia_pt: pt:Redenção (Pará)
    lon: -50.0296418255
    lat: -8.0276045
    no_accents: Redencao
    alternative_names: 
    microregion: Redenção
    mesoregion: Sudeste Paraense
-
    ibge_code: 1506161
    state_code: PA
    osm_id: 185549
    wikidata_id: Q2008301
    name: Rio Maria
    is_capital: 
    wikipedia_pt: pt:Rio Maria
    lon: -50.0464108775
    lat: -7.3111152447
    no_accents: Rio Maria
    alternative_names: 
    microregion: Redenção
    mesoregion: Sudeste Paraense
-
    ibge_code: 1506187
    state_code: PA
    osm_id: 185603
    wikidata_id: Q2008429
    name: Rondon do Pará
    is_capital: 
    wikipedia_pt: pt:Rondon do Pará
    lon: -48.0699737494
    lat: -4.777821727
    no_accents: Rondon do Para
    alternative_names: 
    microregion: Paragominas
    mesoregion: Sudeste Paraense
-
    ibge_code: 1506195
    state_code: PA
    osm_id: 185564
    wikidata_id: Q2009519
    name: Rurópolis
    is_capital: 
    wikipedia_pt: pt:Rurópolis
    lon: -54.9058622599
    lat: -4.09906539
    no_accents: Ruropolis
    alternative_names: 
    microregion: Itaituba
    mesoregion: Sudoeste Paraense
-
    ibge_code: 1506203
    state_code: PA
    osm_id: 185586
    wikidata_id: Q1008198
    name: Salinópolis
    is_capital: 
    wikipedia_pt: pt:Salinópolis
    lon: -47.3531202632
    lat: -0.623638
    no_accents: Salinopolis
    alternative_names: 
    microregion: Salgado
    mesoregion: Nordeste Paraense
-
    ibge_code: 1506302
    state_code: PA
    osm_id: 185583
    wikidata_id: Q1921992
    name: Salvaterra
    is_capital: 
    wikipedia_pt: pt:Salvaterra (Pará)
    lon: -48.5131865994
    lat: -0.7545259744
    no_accents: Salvaterra
    alternative_names: 
    microregion: Arari
    mesoregion: Marajó
-
    ibge_code: 1506351
    state_code: PA
    osm_id: 185551
    wikidata_id: Q2009202
    name: Santa Bárbara do Pará
    is_capital: 
    wikipedia_pt: pt:Santa Bárbara do Pará
    lon: -48.2977406498
    lat: -1.229439467
    no_accents: Santa Barbara do Para
    alternative_names: 
    microregion: Belém
    mesoregion: Metropolitana de Belém
-
    ibge_code: 1506401
    state_code: PA
    osm_id: 185599
    wikidata_id: Q640618
    name: Santa Cruz do Arari
    is_capital: 
    wikipedia_pt: pt:Santa Cruz do Arari
    lon: -49.1716155661
    lat: -0.6599741256
    no_accents: Santa Cruz do Arari
    alternative_names: 
    microregion: Arari
    mesoregion: Marajó
-
    ibge_code: 1506500
    state_code: PA
    osm_id: 185646
    wikidata_id: Q2008554
    name: Santa Izabel do Pará
    is_capital: 
    wikipedia_pt: pt:Santa Izabel do Pará
    lon: -48.163059941
    lat: -1.2973959013
    no_accents: Santa Izabel do Para
    alternative_names: 
    microregion: Castanhal
    mesoregion: Metropolitana de Belém
-
    ibge_code: 1506559
    state_code: PA
    osm_id: 185628
    wikidata_id: Q2008573
    name: Santa Luzia do Pará
    is_capital: 
    wikipedia_pt: pt:Santa Luzia do Pará
    lon: -46.9061692027
    lat: -1.5188278914
    no_accents: Santa Luzia do Para
    alternative_names: 
    microregion: Guamá
    mesoregion: Nordeste Paraense
-
    ibge_code: 1506583
    state_code: PA
    osm_id: 185600
    wikidata_id: Q2009212
    name: Santa Maria das Barreiras
    is_capital: 
    wikipedia_pt: pt:Santa Maria das Barreiras
    lon: -49.7193518572
    lat: -8.8705505397
    no_accents: Santa Maria das Barreiras
    alternative_names: 
    microregion: Conceição do Araguaia
    mesoregion: Sudeste Paraense
-
    ibge_code: 1506609
    state_code: PA
    osm_id: 185580
    wikidata_id: Q1901157
    name: Santa Maria do Pará
    is_capital: 
    wikipedia_pt: pt:Santa Maria do Pará
    lon: -47.5746954138
    lat: -1.3478664593
    no_accents: Santa Maria do Para
    alternative_names: 
    microregion: Bragantina
    mesoregion: Nordeste Paraense
-
    ibge_code: 1506708
    state_code: PA
    osm_id: 185665
    wikidata_id: Q2008589
    name: Santana do Araguaia
    is_capital: 
    wikipedia_pt: pt:Santana do Araguaia
    lon: -50.3448043211
    lat: -9.329424525
    no_accents: Santana do Araguaia
    alternative_names: 
    microregion: Conceição do Araguaia
    mesoregion: Sudeste Paraense
-
    ibge_code: 1506807
    state_code: PA
    osm_id: 185639
    wikidata_id: Q659450
    name: Santarém
    is_capital: 
    wikipedia_pt: pt:Santarém (Pará)
    lon: -54.7185701673
    lat: -2.43621333
    no_accents: Santarem
    alternative_names: 
    microregion: Santarém
    mesoregion: Baixo Amazonas
-
    ibge_code: 1506906
    state_code: PA
    osm_id: 185635
    wikidata_id: Q1811192
    name: Santarém Novo
    is_capital: 
    wikipedia_pt: pt:Santarém Novo
    lon: -47.4009247449
    lat: -0.9287195358
    no_accents: Santarem Novo
    alternative_names: 
    microregion: Bragantina
    mesoregion: Nordeste Paraense
-
    ibge_code: 1507003
    state_code: PA
    osm_id: 185677
    wikidata_id: Q2009548
    name: Santo Antônio do Tauá
    is_capital: 
    wikipedia_pt: pt:Santo Antônio do Tauá
    lon: -48.1324330748
    lat: -1.1516925
    no_accents: Santo Antonio do Taua
    alternative_names: 
    microregion: Castanhal
    mesoregion: Metropolitana de Belém
-
    ibge_code: 1507102
    state_code: PA
    osm_id: 185613
    wikidata_id: Q632789
    name: São Caetano de Odivelas
    is_capital: 
    wikipedia_pt: pt:São Caetano de Odivelas
    lon: -48.0258054981
    lat: -0.74661776
    no_accents: Sao Caetano de Odivelas
    alternative_names: 
    microregion: Salgado
    mesoregion: Nordeste Paraense
-
    ibge_code: 1507151
    state_code: PA
    osm_id: 185559
    wikidata_id: Q1841455
    name: São Domingos do Araguaia
    is_capital: 
    wikipedia_pt: pt:São Domingos do Araguaia
    lon: -48.7203734108
    lat: -5.549841
    no_accents: Sao Domingos do Araguaia
    alternative_names: 
    microregion: Marabá
    mesoregion: Sudeste Paraense
-
    ibge_code: 1507201
    state_code: PA
    osm_id: 185624
    wikidata_id: Q955985
    name: São Domingos do Capim
    is_capital: 
    wikipedia_pt: pt:São Domingos do Capim
    lon: -47.7747845692
    lat: -1.6758145
    no_accents: Sao Domingos do Capim
    alternative_names: 
    microregion: Guamá
    mesoregion: Nordeste Paraense
-
    ibge_code: 1507300
    state_code: PA
    osm_id: 185669
    wikidata_id: Q1807317
    name: São Félix do Xingu
    is_capital: 
    wikipedia_pt: pt:São Félix do Xingu
    lon: -51.993782524
    lat: -6.6424832783
    no_accents: Sao Felix do Xingu
    alternative_names: 
    microregion: São Félix do Xingu
    mesoregion: Sudeste Paraense
-
    ibge_code: 1507409
    state_code: PA
    osm_id: 185642
    wikidata_id: Q2008769
    name: São Francisco do Pará
    is_capital: 
    wikipedia_pt: pt:São Francisco do Pará
    lon: -47.7905146107
    lat: -1.1701887847
    no_accents: Sao Francisco do Para
    alternative_names: 
    microregion: Bragantina
    mesoregion: Nordeste Paraense
-
    ibge_code: 1507458
    state_code: PA
    osm_id: 185550
    wikidata_id: Q2008501
    name: São Geraldo do Araguaia
    is_capital: 
    wikipedia_pt: pt:São Geraldo do Araguaia
    lon: -48.5557124862
    lat: -6.39895797
    no_accents: Sao Geraldo do Araguaia
    alternative_names: 
    microregion: Redenção
    mesoregion: Sudeste Paraense
-
    ibge_code: 1507466
    state_code: PA
    osm_id: 185619
    wikidata_id: Q2008293
    name: São João da Ponta
    is_capital: 
    wikipedia_pt: pt:São João da Ponta
    lon: -47.9207241656
    lat: -0.8510021453
    no_accents: Sao Joao da Ponta
    alternative_names: 
    microregion: Salgado
    mesoregion: Nordeste Paraense
-
    ibge_code: 1507474
    state_code: PA
    osm_id: 185653
    wikidata_id: Q2008440
    name: São João de Pirabas
    is_capital: 
    wikipedia_pt: pt:São João de Pirabas
    lon: -47.1726742979
    lat: -0.7664425315
    no_accents: Sao Joao de Pirabas
    alternative_names: 
    microregion: Salgado
    mesoregion: Nordeste Paraense
-
    ibge_code: 1507508
    state_code: PA
    osm_id: 185555
    wikidata_id: Q2008417
    name: São João do Araguaia
    is_capital: 
    wikipedia_pt: pt:São João do Araguaia
    lon: -48.788633402
    lat: -5.3590027244
    no_accents: Sao Joao do Araguaia
    alternative_names: 
    microregion: Marabá
    mesoregion: Sudeste Paraense
-
    ibge_code: 1507607
    state_code: PA
    osm_id: 185611
    wikidata_id: Q2008532
    name: São Miguel do Guamá
    is_capital: 
    wikipedia_pt: pt:São Miguel do Guamá
    lon: -47.4824089445
    lat: -1.6171359145
    no_accents: Sao Miguel do Guama
    alternative_names: 
    microregion: Guamá
    mesoregion: Nordeste Paraense
-
    ibge_code: 1507706
    state_code: PA
    osm_id: 185591
    wikidata_id: Q1868533
    name: São Sebastião da Boa Vista
    is_capital: 
    wikipedia_pt: pt:São Sebastião da Boa Vista
    lon: -49.5323121746
    lat: -1.7188505
    no_accents: Sao Sebastiao da Boa Vista
    alternative_names: 
    microregion: Furos de Breves
    mesoregion: Marajó
-
    ibge_code: 1507755
    state_code: PA
    osm_id: 185556
    wikidata_id: Q2289887
    name: Sapucaia
    is_capital: 
    wikipedia_pt: pt:Sapucaia (Pará)
    lon: -49.7035807119
    lat: -6.9428571126
    no_accents: Sapucaia
    alternative_names: 
    microregion: Redenção
    mesoregion: Sudeste Paraense
-
    ibge_code: 1507805
    state_code: PA
    osm_id: 185633
    wikidata_id: Q609027
    name: Senador José Porfírio
    is_capital: 
    wikipedia_pt: pt:Senador José Porfírio
    lon: -51.953056418
    lat: -2.5948504183
    no_accents: Senador Jose Porfirio
    alternative_names: 
    microregion: Altamira
    mesoregion: Sudoeste Paraense
-
    ibge_code: 1507904
    state_code: PA
    osm_id: 185596
    wikidata_id: Q1016643
    name: Soure
    is_capital: 
    wikipedia_pt: pt:Soure (Pará)
    lon: -48.5160126623
    lat: -0.7259255
    no_accents: Soure
    alternative_names: 
    microregion: Arari
    mesoregion: Marajó
-
    ibge_code: 1507953
    state_code: PA
    osm_id: 185612
    wikidata_id: Q2289846
    name: Tailândia
    is_capital: 
    wikipedia_pt: pt:Tailândia (Pará)
    lon: -48.9512816296
    lat: -2.9370795
    no_accents: Tailandia
    alternative_names: 
    microregion: Tomé-Açu
    mesoregion: Nordeste Paraense
-
    ibge_code: 1507961
    state_code: PA
    osm_id: 185637
    wikidata_id: Q2289951
    name: Terra Alta
    is_capital: 
    wikipedia_pt: pt:Terra Alta (Pará)
    lon: -47.9078083484
    lat: -1.0348266636
    no_accents: Terra Alta
    alternative_names: 
    microregion: Salgado
    mesoregion: Nordeste Paraense
-
    ibge_code: 1507979
    state_code: PA
    osm_id: 185597
    wikidata_id: Q2003795
    name: Terra Santa
    is_capital: 
    wikipedia_pt: pt:Terra Santa (Pará)
    lon: -56.4909047722
    lat: -2.1081144737
    no_accents: Terra Santa
    alternative_names: 
    microregion: Óbidos
    mesoregion: Baixo Amazonas
-
    ibge_code: 1508001
    state_code: PA
    osm_id: 185655
    wikidata_id: Q1805230
    name: Tomé-Açu
    is_capital: 
    wikipedia_pt: pt:Tomé-Açu
    lon: -48.1468965866
    lat: -2.4193668553
    no_accents: Tome-Acu
    alternative_names: 
    microregion: Tomé-Açu
    mesoregion: Nordeste Paraense
-
    ibge_code: 1508035
    state_code: PA
    osm_id: 90131
    wikidata_id: Q2008789
    name: Tracuateua
    is_capital: 
    wikipedia_pt: pt:Tracuateua
    lon: -46.8994783371
    lat: -1.0687840586
    no_accents: Tracuateua
    alternative_names: 
    microregion: Bragantina
    mesoregion: Nordeste Paraense
-
    ibge_code: 1508050
    state_code: PA
    osm_id: 185587
    wikidata_id: Q2009409
    name: Trairão
    is_capital: 
    wikipedia_pt: pt:Trairão
    lon: -55.9961700349
    lat: -4.6998191497
    no_accents: Trairao
    alternative_names: 
    microregion: Itaituba
    mesoregion: Sudoeste Paraense
-
    ibge_code: 1508084
    state_code: PA
    osm_id: 185594
    wikidata_id: Q2445520
    name: Tucumã
    is_capital: 
    wikipedia_pt: pt:Tucumã (Pará)
    lon: -51.1395392466
    lat: -6.7499720074
    no_accents: Tucuma
    alternative_names: 
    microregion: São Félix do Xingu
    mesoregion: Sudeste Paraense
-
    ibge_code: 1508100
    state_code: PA
    osm_id: 185562
    wikidata_id: Q374432
    name: Tucuruí
    is_capital: 
    wikipedia_pt: pt:Tucuruí
    lon: -49.6671843672
    lat: -3.7668890843
    no_accents: Tucurui
    alternative_names: 
    microregion: Tucuruí
    mesoregion: Sudeste Paraense
-
    ibge_code: 1508126
    state_code: PA
    osm_id: 185627
    wikidata_id: Q2008337
    name: Ulianópolis
    is_capital: 
    wikipedia_pt: pt:Ulianópolis
    lon: -47.503144755
    lat: -3.75719301
    no_accents: Ulianopolis
    alternative_names: 
    microregion: Paragominas
    mesoregion: Sudeste Paraense
-
    ibge_code: 1508159
    state_code: PA
    osm_id: 185670
    wikidata_id: Q2009083
    name: Uruará
    is_capital: 
    wikipedia_pt: pt:Uruará
    lon: -53.7370310505
    lat: -3.7065285
    no_accents: Uruara
    alternative_names: 
    microregion: Altamira
    mesoregion: Sudoeste Paraense
-
    ibge_code: 1508209
    state_code: PA
    osm_id: 185648
    wikidata_id: Q1804913
    name: Vigia
    is_capital: 
    wikipedia_pt: pt:Vigia (Pará)
    lon: -48.1414985852
    lat: -0.8555325737
    no_accents: Vigia
    alternative_names: 
    microregion: Salgado
    mesoregion: Nordeste Paraense
-
    ibge_code: 1508308
    state_code: PA
    osm_id: 90130
    wikidata_id: Q772569
    name: Viseu
    is_capital: 
    wikipedia_pt: pt:Viseu (Pará)
    lon: -46.1387652161
    lat: -1.2032785267
    no_accents: Viseu
    alternative_names: 
    microregion: Guamá
    mesoregion: Nordeste Paraense
-
    ibge_code: 1508357
    state_code: PA
    osm_id: 185675
    wikidata_id: Q2008512
    name: Vitória do Xingu
    is_capital: 
    wikipedia_pt: pt:Vitória do Xingu
    lon: -52.0112603538
    lat: -2.8837657102
    no_accents: Vitoria do Xingu
    alternative_names: 
    microregion: Altamira
    mesoregion: Sudoeste Paraense
-
    ibge_code: 1508407
    state_code: PA
    osm_id: 185617
    wikidata_id: Q2008249
    name: Xinguara
    is_capital: 
    wikipedia_pt: pt:Xinguara
    lon: -49.9427005844
    lat: -7.1015128271
    no_accents: Xinguara
    alternative_names: 
    microregion: Redenção
    mesoregion: Sudeste Paraense
-
    ibge_code: 1600055
    state_code: AP
    osm_id: 331467
    wikidata_id: Q1754413
    name: Serra do Navio
    is_capital: 
    wikipedia_pt: pt:Serra do Navio
    lon: -52.0035384353
    lat: 0.897841041
    no_accents: Serra do Navio
    alternative_names: 
    microregion: Macapá
    mesoregion: Sul do Amapá
-
    ibge_code: 1600105
    state_code: AP
    osm_id: 331477
    wikidata_id: Q586263
    name: Amapá
    is_capital: 
    wikipedia_pt: pt:Amapá (município)
    lon: -50.7932144703
