ibge_code,state_code,osm_relation_id,wikidata_id,name,is_capital,population_2017,population_2018,wikipedia_pt,website,lon,lat,no_accents,alternative_names,microregion,mesoregion
1100015,RO,325842,Q1761456,Alta Floresta d'Oeste,,25437,23167,pt:Alta Floresta d'Oeste,,-61.9998238963,-11.9355403048,Alta Floresta d'Oeste,,Cacoal,Leste Rondoniense
1100023,RO,325888,Q1646975,Ariquemes,,107345,106168,pt:Ariquemes,,-63.033269278,-9.9084628666,Ariquemes,,Ariquemes,Leste Rondoniense
1100031,RO,325882,Q940433,Cabixi,,6224,5438,pt:Cabixi,,-60.5443135812,-13.4997634597,Cabixi,,Colorado do Oeste,Leste Rondoniense
1100049,RO,325872,Q1761637,Cacoal,,88507,84813,pt:Cacoal,,-61.4429442118,-11.4338650287,Cacoal,,Cacoal,Leste Rondoniense
1100056,RO,325883,Q1803210,Cerejeiras,,17934,16444,pt:Cerejeiras,,-60.8184261647,-13.195033032,Cerejeiras,,Colorado do Oeste,Leste Rondoniense
1100064,RO,325860,Q1785819,Colorado do Oeste,,18467,16227,pt:Colorado do Oeste,,-60.5550674631,-13.1305638415,Colorado do Oeste,,Colorado do Oeste,Leste Rondoniense
1100072,RO,325874,Q927349,Corumbiara,,8659,7567,pt:Corumbiara,,-60.9487011707,-12.9975202365,Corumbiara,,Colorado do Oeste,Leste Rondoniense
1100080,RO,325844,Q656758,Costa Marques,,17400,17855,pt:Costa Marques,,-64.2316539391,-12.4360138777,Costa Marques,,Guajará-Mirim,Madeira-Guaporé
1100098,RO,325845,Q616498,Espigão d'Oeste,,33030,32047,pt:Espigão d'Oeste,,-61.0201731133,-11.5285546333,Espigao d'Oeste,,Cacoal,Leste Rondoniense
1100106,RO,325856,Q983810,Guajará-Mirim,,47451,45783,pt:Guajará-Mirim,,-65.3239518197,-10.7738837407,Guajara-Mirim,,Guajará-Mirim,Madeira-Guaporé
1100114,RO,325864,Q988755,Jaru,,55871,51933,pt:Jaru,,-62.4762307081,-10.4359487679,Jaru,,Ji-Paraná,Leste Rondoniense
1100122,RO,325879,Q983815,Ji-Paraná,,132667,127907,pt:Ji-Paraná,,-61.9450945827,-10.8820513183,Ji-Parana,,Ji-Paraná,Leste Rondoniense
1100130,RO,325881,Q1786440,Machadinho d'Oeste,,38609,39097,pt:Machadinho d'Oeste,,-61.9995925724,-9.42556248,Machadinho d'Oeste,,Ariquemes,Leste Rondoniense
1100148,RO,325857,Q2014329,Nova Brasilândia d'Oeste,,21747,20459,pt:Nova Brasilândia d'Oeste,,-62.308230163,-11.7213254139,Nova Brasilandia d'Oeste,,Alvorada D'oeste,Leste Rondoniense
1100155,RO,325854,Q1803223,Ouro Preto do Oeste,,39759,36340,pt:Ouro Preto do Oeste,,-62.2610551904,-10.7235739008,Ouro Preto do Oeste,,Ji-Paraná,Leste Rondoniense
1100189,RO,325843,Q1803175,Pimenta Bueno,,38051,36434,pt:Pimenta Bueno,,-61.1836656736,-11.67753699,Pimenta Bueno,,Vilhena,Leste Rondoniense
1100205,RO,325855,Q172512,Porto Velho,true,519436,519531,pt:Porto Velho,,-63.8314456544,-8.76889179,Porto Velho,,Porto Velho,Madeira-Guaporé
1100254,RO,325892,Q1871362,Presidente Médici,,22124,19409,pt:Presidente Médici (Rondônia),,-61.9094386835,-11.1732050162,Presidente Medici,,Ji-Paraná,Leste Rondoniense
1100262,RO,325848,Q1786495,Rio Crespo,,3829,3723,pt:Rio Crespo,,-62.900010366,-9.7055367097,Rio Crespo,,Ariquemes,Leste Rondoniense
1100288,RO,325876,Q1784242,Rolim de Moura,,57074,54702,pt:Rolim de Moura,,-61.7857809352,-11.7222589134,Rolim de Moura,,Cacoal,Leste Rondoniense
1100296,RO,325862,Q1802100,Santa Luzia d'Oeste,,8198,6781,pt:Santa Luzia d'Oeste,,-61.7733054631,-11.9084233325,Santa Luzia d'Oeste,,Cacoal,Leste Rondoniense
1100304,RO,325887,Q1749958,Vilhena,,95630,97448,pt:Vilhena,,-60.1385838661,-12.7413734718,Vilhena,,Vilhena,Leste Rondoniense
1100320,RO,325863,Q1807456,São Miguel do Guaporé,,24181,22931,pt:São Miguel do Guaporé,,-62.7200634814,-11.6994897438,Sao Miguel do Guapore,,Alvorada D'oeste,Leste Rondoniense
1100338,RO,325849,Q993507,Nova Mamoré,,28891,29757,pt:Nova Mamoré,,-65.3291490231,-10.4117712947,Nova Mamore,,Porto Velho,Madeira-Guaporé
1100346,RO,325853,Q1786028,Alvorada d'Oeste,,16747,14722,pt:Alvorada d'Oeste,,-62.2772748657,-11.3441300234,Alvorada d'Oeste,,Alvorada D'oeste,Leste Rondoniense
1100379,RO,325858,Q1802050,Alto Alegre dos Parecis,,14045,13227,pt:Alto Alegre dos Parecis,,-61.8530771686,-12.1317772246,Alto Alegre dos Parecis,,Cacoal,Leste Rondoniense
1100403,RO,325870,Q607036,Alto Paraíso,,20916,20999,pt:Alto Paraíso (Rondônia),,-63.3176294335,-9.7166667381,Alto Paraiso,,Ariquemes,Leste Rondoniense
1100452,RO,325859,Q1921800,Buritis,,39044,38937,pt:Buritis (Rondônia),,-63.8296787918,-10.2098054072,Buritis,,Porto Velho,Madeira-Guaporé
1100502,RO,325865,Q2013150,Novo Horizonte do Oeste,,10051,8751,pt:Novo Horizonte do Oeste,,-61.9943876628,-11.70974292,Novo Horizonte do Oeste,,Cacoal,Leste Rondoniense
1100601,RO,325847,Q1750177,Cacaulândia,,6460,6190,pt:Cacaulândia,,-62.9031899346,-10.3388728394,Cacaulandia,,Ariquemes,Leste Rondoniense
1100700,RO,325871,Q2089179,Campo Novo de Rondônia,,14484,14009,pt:Campo Novo de Rondônia,,-63.6249914265,-10.5684164693,Campo Novo de Rondonia,,Porto Velho,Madeira-Guaporé
1100809,RO,325890,Q2078405,Candeias do Jamari,,25266,25983,pt:Candeias do Jamari,,-63.7000200718,-8.7850207035,Candeias do Jamari,,Porto Velho,Madeira-Guaporé
1100908,RO,325891,Q1785860,Castanheiras,,3550,3119,pt:Castanheiras,,-61.9491611965,-11.4268422255,Castanheiras,,Cacoal,Leste Rondoniense
1100924,RO,325852,Q735454,Chupinguaia,,10593,10886,pt:Chupinguaia,,-60.90184775,-12.5568407611,Chupinguaia,,Vilhena,Leste Rondoniense
1100940,RO,325880,Q1803135,Cujubim,,22443,24226,pt:Cujubim,,-62.5871745319,-9.3781933991,Cujubim,,Porto Velho,Madeira-Guaporé
1101005,RO,325894,Q964725,Governador Jorge Teixeira,,9745,8095,pt:Governador Jorge Teixeira,,-62.7404576395,-10.6120717726,Governador Jorge Teixeira,,Ji-Paraná,Leste Rondoniense
1101104,RO,325893,Q1802170,Itapuã do Oeste,,10310,10272,pt:Itapuã do Oeste,,-63.1823370165,-9.1918716753,Itapua do Oeste,,Porto Velho,Madeira-Guaporé
1101203,RO,325889,Q775204,Ministro Andreazza,,10751,9762,pt:Ministro Andreazza,,-61.5189219301,-11.1962379842,Ministro Andreazza,,Cacoal,Leste Rondoniense
1101302,RO,325875,Q2079711,Mirante da Serra,,12258,11080,pt:Mirante da Serra,,-62.6694270953,-11.0456092899,Mirante da Serra,,Ji-Paraná,Leste Rondoniense
1101401,RO,325873,Q2014320,Monte Negro,,16186,15695,pt:Monte Negro,,-63.2955591672,-10.2630977559,Monte Negro,,Ariquemes,Leste Rondoniense
1101435,RO,325846,Q2364475,Nova União,,7769,7047,pt:Nova União (Rondônia),,-62.5550893989,-10.9155320417,Nova Uniao,,Ji-Paraná,Leste Rondoniense
1101450,RO,325850,Q1803114,Parecis,,5904,5947,pt:Parecis (Rondônia),,-61.5979979727,-12.1798270507,Parecis,,Vilhena,Leste Rondoniense
1101468,RO,325885,Q1803105,Pimenteiras do Oeste,,2410,2191,pt:Pimenteiras do Oeste,,-61.0443790025,-13.4765620025,Pimenteiras do Oeste,,Colorado do Oeste,Leste Rondoniense
1101476,RO,325878,Q1802123,Primavera de Rondônia,,3411,2939,pt:Primavera de Rondônia,,-61.3165462429,-11.8257069542,Primavera de Rondonia,,Vilhena,Leste Rondoniense
1101484,RO,325877,Q1803269,São Felipe d'Oeste,,5994,5280,pt:São Felipe d'Oeste,,-61.5125081133,-11.9143893547,Sao Felipe d'Oeste,,Vilhena,Leste Rondoniense
1101492,RO,325851,Q1802095,São Francisco do Guaporé,,19694,19842,pt:São Francisco do Guaporé,,-63.5708647108,-12.0637984122,Sao Francisco do Guapore,,Guajará-Mirim,Madeira-Guaporé
1101500,RO,325867,Q727950,Seringueiras,,12653,11860,pt:Seringueiras,,-63.0387609977,-11.7671166356,Seringueiras,,Alvorada D'oeste,Leste Rondoniense
1101559,RO,325861,Q1802088,Teixeirópolis,,4931,4384,pt:Teixeirópolis,,-62.255922254,-10.932169286,Teixeiropolis,,Ji-Paraná,Leste Rondoniense
1101609,RO,325886,Q647208,Theobroma,,11350,10494,pt:Theobroma,,-62.3451455299,-10.248730552,Theobroma,,Ji-Paraná,Leste Rondoniense
1101708,RO,325884,Q2089326,Urupá,,13106,11665,pt:Urupá,,-62.3706324538,-11.1285452757,Urupa,,Ji-Paraná,Leste Rondoniense
1101757,RO,325868,Q1807445,Vale do Anari,,11149,11028,pt:Vale do Anari,,-62.1768234421,-9.8513927081,Vale do Anari,,Ariquemes,Leste Rondoniense
1101807,RO,325869,Q2013187,Vale do Paraíso,,8047,6998,pt:Vale do Paraíso (Rondônia),,-62.1343903568,-10.4310526846,Vale do Paraiso,,Ji-Paraná,Leste Rondoniense
1200013,AC,326273,Q953086,Acrelândia,,14366,15020,pt:Acrelândia,,-67.05231658,-10.0737938925,Acrelandia,,Rio Branco,Vale do Acre
1200054,AC,326269,Q1754403,Assis Brasil,,6986,7300,pt:Assis Brasil,,-69.5634591747,-10.9428656809,Assis Brasil,,Brasiléia,Vale do Acre
1200104,AC,326270,Q899406,Brasiléia,,24765,25848,pt:Brasileia,,-68.747943426,-11.0164110191,Brasileia,,Brasiléia,Vale do Acre
1200138,AC,326259,Q1754408,Bujari,,9664,10111,pt:Bujari,,-67.9518592792,-9.8200196267,Bujari,,Rio Branco,Vale do Acre
1200179,AC,326268,Q1800737,Capixaba,,11136,11456,pt:Capixaba (Acre),,-67.6735079719,-10.5697677088,Capixaba,,Rio Branco,Vale do Acre
1200203,AC,326274,Q941136,Cruzeiro do Sul,,82622,87673,pt:Cruzeiro do Sul (Acre),,-72.6725313174,-7.630690005,Cruzeiro do Sul,,Cruzeiro do Sul,Vale do Juruá
1200252,AC,326256,Q1755395,Epitaciolândia,,17340,18122,pt:Epitaciolândia,,-68.7448680667,-11.028239828,Epitaciolandia,,Brasiléia,Vale do Acre
1200302,AC,326258,Q1994833,Feijó,,32360,34675,pt:Feijó (Acre),,-70.3539836082,-8.16024753,Feijo,,Tarauacá,Vale do Juruá
1200328,AC,326252,Q1800793,Jordão,,7858,8159,pt:Jordão (Acre),,-71.9508751248,-9.1933578598,Jordao,,Tarauacá,Vale do Juruá
1200336,AC,326262,Q1772621,Mâncio Lima,,17910,18638,pt:Mâncio Lima,,-72.9165010261,-7.5932225939,Mancio Lima,,Cruzeiro do Sul,Vale do Juruá
1200344,AC,326271,Q1772688,Manoel Urbano,,8886,9336,pt:Manoel Urbano,,-69.2599445775,-8.8363177369,Manoel Urbano,,Sena Madureira,Vale do Acre
1200351,AC,326257,Q1772613,Marechal Thaumaturgo,,17897,18430,pt:Marechal Thaumaturgo,,-72.7902659087,-8.9535911232,Marechal Thaumaturgo,,Cruzeiro do Sul,Vale do Juruá
1200385,AC,326267,Q964075,Plácido de Castro,,18510,19565,pt:Plácido de Castro (Acre),,-67.1882600862,-10.3351332827,Placido de Castro,,Rio Branco,Vale do Acre
1200393,AC,326264,Q1772588,Porto Walter,,11353,11720,pt:Porto Walter,,-72.7423339648,-8.2666663628,Porto Walter,,Cruzeiro do Sul,Vale do Juruá
1200401,AC,326253,Q171612,Rio Branco,true,383443,401155,pt:Rio Branco,,-67.8105287004,-9.9782987527,Rio Branco,,Rio Branco,Vale do Acre
1200427,AC,326254,Q1800776,Rodrigues Alves,,17945,18504,pt:Rodrigues Alves (Acre),,-72.6478549142,-7.7336020337,Rodrigues Alves,,Cruzeiro do Sul,Vale do Juruá
1200435,AC,326272,Q1772719,Santa Rosa do Purus,,6230,6362,pt:Santa Rosa do Purus,,-70.4864968938,-9.4434065374,Santa Rosa do Purus,,Sena Madureira,Vale do Acre
1200450,AC,326261,Q771763,Senador Guiomard,,21552,22810,pt:Senador Guiomard,,-67.74317236,-10.1481735862,Senador Guiomard,,Rio Branco,Vale do Acre
1200500,AC,326263,Q1754389,Sena Madureira,,43139,45177,pt:Sena Madureira,,-68.6556840617,-9.065339505,Sena Madureira,,Sena Madureira,Vale do Acre
1200609,AC,326255,Q979910,Tarauacá,,40024,41976,pt:Tarauacá,,-70.7555010629,-8.1556685918,Tarauaca,,Tarauacá,Vale do Juruá
1200708,AC,326260,Q1012531,Xapuri,,18174,19048,pt:Xapuri,,-68.506294805,-10.6520719403,Xapuri,,Brasiléia,Vale do Acre
1200807,AC,326265,Q1772602,Porto Acre,,17459,18180,pt:Porto Acre,,-67.5405900835,-9.6008582312,Porto Acre,,Rio Branco,Vale do Acre
1300029,AM,332499,Q1808573,Alvarães,,15908,15860,pt:Alvarães (Amazonas),,-64.8135346776,-3.2165837691,Alvaraes,,Tefé,Centro Amazonense
1300060,AM,332512,Q1772609,Amaturá,,11242,11332,pt:Amaturá,,-68.2096146409,-3.3668051875,Amatura,,Alto Solimões,Sudoeste Amazonense
1300086,AM,332497,Q974915,Anamã,,12978,13269,pt:Anamã,,-61.4059034798,-3.5763704269,Anama,,Coari,Centro Amazonense
1300102,AM,332474,Q931090,Anori,,20196,20538,pt:Anori,,-61.6589553829,-3.7453855861,Anori,,Coari,Centro Amazonense
1300144,AM,332502,Q1112525,Apuí,,21406,21583,pt:Apuí,,-59.8856661047,-7.1978701516,Apui,,Madeira,Sul Amazonense
1300201,AM,332473,Q1793319,Atalaia do Norte,,19054,19438,pt:Atalaia do Norte,,-70.1879892845,-4.3661574897,Atalaia do Norte,,Alto Solimões,Sudoeste Amazonense
1300300,AM,332503,Q1772695,Autazes,,38454,38830,pt:Autazes,,-59.1335670918,-3.5786636418,Autazes,,Manaus,Centro Amazonense
1300409,AM,332478,Q807939,Barcelos,,27743,27364,pt:Barcelos (Amazonas),,-62.9256696581,-0.9728010525,Barcelos,,Rio Negro,Norte Amazonense
1300508,AM,332522,Q1772565,Barreirinha,,31542,31593,pt:Barreirinha,,-57.0677504899,-2.7981498369,Barreirinha,,Parintins,Centro Amazonense
1300607,AM,332518,Q1767926,Benjamin Constant,,41329,42020,pt:Benjamin Constant (Amazonas),,-70.0273484333,-4.3749890186,Benjamin Constant,,Alto Solimões,Sudoeste Amazonense
1300631,AM,332513,Q584172,Beruri,,18978,19258,pt:Beruri,,-61.3715708917,-3.8945134098,Beruri,,Coari,Centro Amazonense
1300680,AM,332464,Q940548,Boa Vista do Ramos,,18483,18781,pt:Boa Vista do Ramos,,-57.5877073465,-2.9717265316,Boa Vista do Ramos,,Parintins,Centro Amazonense
1300706,AM,332492,Q1793334,Boca do Acre,,34176,33976,pt:Boca do Acre,,-67.3995777567,-8.7512431961,Boca do Acre,,Boca do Acre,Sul Amazonense
1300805,AM,332495,Q2089660,Borba,,40464,40565,pt:Borba (Amazonas),,-59.5945590195,-4.3906198915,Borba,,Madeira,Sul Amazonense
1300839,AM,332501,Q945469,Caapiranga,,12820,12877,pt:Caapiranga,,-61.2113341332,-3.3300933919,Caapiranga,,Coari,Centro Amazonense
1300904,AM,332480,Q1807050,Canutama,,15490,15450,pt:Canutama,,-64.3942308189,-6.5291060758,Canutama,,Purus,Sul Amazonense
1301001,AM,332496,Q1794236,Carauari,,28337,28076,pt:Carauari,,-66.8966352817,-4.8816659042,Carauari,,Juruá,Sudoeste Amazonense
1301100,AM,332515,Q1751325,Careiro,,37399,37384,pt:Careiro,,-60.3638098437,-3.82244727,Careiro,,Manaus,Centro Amazonense
1301159,AM,332462,Q1807045,Careiro da Várzea,,29190,29595,pt:Careiro da Várzea,,-59.8263140608,-3.1973965949,Careiro da Varzea,,Manaus,Centro Amazonense
1301209,AM,332521,Q645204,Coari,,84762,84272,pt:Coari,,-63.1421839841,-4.0842191588,Coari,,Coari,Centro Amazonense
1301308,AM,332491,Q1762074,Codajás,,27817,28100,pt:Codajás,,-62.0634296605,-3.8430459327,Codajas,,Coari,Centro Amazonense
1301407,AM,332511,Q1646910,Eirunepé,,34888,34840,pt:Eirunepé,,-69.8662902624,-6.6673525669,Eirunepe,,Juruá,Sudoeste Amazonense
1301506,AM,332488,Q1750090,Envira,,19492,19668,pt:Envira,,-70.030412543,-7.439817544,Envira,,Juruá,Sudoeste Amazonense
1301605,AM,332510,Q1793768,Fonte Boa,,19669,18221,pt:Fonte Boa (Amazonas),,-66.0965029898,-2.5122706845,Fonte Boa,,Alto Solimões,Sudoeste Amazonense
1301654,AM,332508,Q1808440,Guajará,,16339,16416,pt:Guajará (Amazonas),,-72.5824305383,-7.5477744148,Guajara,,Juruá,Sudoeste Amazonense
1301704,AM,332523,Q1025760,Humaitá,,53383,54001,pt:Humaitá (Amazonas),,-63.0266980219,-7.5122249506,Humaita,,Madeira,Sul Amazonense
1301803,AM,332520,Q1794374,Ipixuna,,28299,28933,pt:Ipixuna,,-71.6944180603,-7.0509801144,Ipixuna,,Juruá,Sudoeste Amazonense
1301852,AM,332514,Q1761947,Iranduba,,47407,47571,pt:Iranduba,,-60.1933881661,-3.2810538776,Iranduba,,Manaus,Centro Amazonense
1301902,AM,332524,Q1750426,Itacoatiara,,99854,99955,pt:Itacoatiara,,-58.4401754368,-3.1403788039,Itacoatiara,,Itacoatiara,Centro Amazonense
1301951,AM,332519,Q1102558,Itamarati,,8128,7888,pt:Itamarati,,-68.247917436,-6.4377993486,Itamarati,,Juruá,Sudoeste Amazonense
1302009,AM,332516,Q1808448,Itapiranga,,9125,9064,pt:Itapiranga (Amazonas),,-58.034545884,-2.7418427523,Itapiranga,,Itacoatiara,Centro Amazonense
1302108,AM,332494,Q1757955,Japurá,,4205,3265,pt:Japurá (Amazonas),,-66.9969034946,-1.8808448587,Japura,,Japurá,Norte Amazonense
1302207,AM,332490,Q1008285,Juruá,,13956,14312,pt:Juruá,,-66.0630419255,-3.4748895989,Jurua,,Juruá,Sudoeste Amazonense
1302306,AM,332506,Q684641,Jutaí,,15824,14753,pt:Jutaí,,-66.7713275467,-2.7446464469,Jutai,,Alto Solimões,Sudoeste Amazonense
1302405,AM,332504,Q386631,Lábrea,,44861,45245,pt:Lábrea,,-64.7947730275,-7.2619465533,Labrea,,Purus,Sul Amazonense
1302504,AM,332469,Q983526,Manacapuru,,96460,96236,pt:Manacapuru,,-60.6205894459,-3.2982780355,Manacapuru,,Manaus,Centro Amazonense
1302553,AM,332467,Q1807976,Manaquiri,,30222,31147,pt:Manaquiri,,-60.4588813064,-3.4290796694,Manaquiri,,Manaus,Centro Amazonense
1302603,AM,332493,Q40236,Manaus,true,2130264,2145444,pt:Manaus,,-60.0233351811,-3.1346914912,Manaus,,Manaus,Centro Amazonense
1302702,AM,332463,Q43490,Manicoré,,54708,54907,pt:Manicoré,,-61.2992484089,-5.8132052612,Manicore,,Madeira,Sul Amazonense
1302801,AM,332479,Q1763270,Maraã,,18531,18186,pt:Maraã,,-65.5742837032,-1.8664368773,Maraa,,Japurá,Norte Amazonense
1302900,AM,332475,Q1808581,Maués,,62212,62755,pt:Maués (Amazonas),,-57.7150343868,-3.3864279262,Maues,,Parintins,Centro Amazonense
1303007,AM,332482,Q1793306,Nhamundá,,20902,20899,pt:Nhamundá,,-56.7167699133,-2.1889837669,Nhamunda,,Parintins,Centro Amazonense
1303106,AM,332481,Q1772535,Nova Olinda do Norte,,36431,36721,pt:Nova Olinda do Norte,,-59.093074026,-3.8875928319,Nova Olinda do Norte,,Itacoatiara,Centro Amazonense
1303205,AM,332468,Q1750332,Novo Airão,,18586,18974,pt:Novo Airão,,-60.9488107078,-2.623432459,Novo Airao,,Rio Negro,Norte Amazonense
1303304,AM,332465,Q1793549,Novo Aripuanã,,25112,25237,pt:Novo Aripuanã,,-60.377045669,-5.1226693142,Novo Aripuana,,Madeira,Sul Amazonense
1303403,AM,332517,Q926713,Parintins,,113832,113168,pt:Parintins,,-56.7362921452,-2.6270525858,Parintins,,Parintins,Centro Amazonense
1303502,AM,332509,Q1793494,Pauini,,19597,19329,pt:Pauini,,-67.0020974885,-7.7140436443,Pauini,,Boca do Acre,Sul Amazonense
1303536,AM,332498,Q655097,Presidente Figueiredo,,34574,35352,pt:Presidente Figueiredo,,-60.0256468345,-2.0584290852,Presidente Figueiredo,,Rio Preto da Eva,Centro Amazonense
1303569,AM,332500,Q1793560,Rio Preto da Eva,,32001,32577,pt:Rio Preto da Eva,,-59.7047380942,-2.6933015416,Rio Preto da Eva,,Rio Preto da Eva,Centro Amazonense
1303601,AM,332484,Q1754543,Santa Isabel do Rio Negro,,23765,24436,pt:Santa Isabel do Rio Negro,,-65.0200226395,-0.4166948319,Santa Isabel do Rio Negro,,Rio Negro,Norte Amazonense
1303700,AM,332505,Q970224,Santo Antônio do Içá,,23075,21966,pt:Santo Antônio do Içá,,-67.9464851439,-3.1074863092,Santo Antonio do Ica,,Alto Solimões,Sudoeste Amazonense
1303809,AM,332477,Q694840,São Gabriel da Cachoeira,,44553,44816,pt:São Gabriel da Cachoeira,,-67.0836428963,-0.1364627881,Sao Gabriel da Cachoeira,,Rio Negro,Norte Amazonense
1303908,AM,332507,Q1794983,São Paulo de Olivença,,38047,38515,pt:São Paulo de Olivença,,-68.9448534881,-3.4665096235,Sao Paulo de Olivenca,,Alto Solimões,Sudoeste Amazonense
1303957,AM,332483,Q1793440,São Sebastião do Uatumã,,13421,13685,pt:São Sebastião do Uatumã,,-57.8703463558,-2.5701525797,Sao Sebastiao do Uatuma,,Parintins,Centro Amazonense
1304005,AM,332471,Q2089673,Silves,,9211,9110,pt:Silves (Amazonas),,-58.2148008608,-2.8364274297,Silves,,Itacoatiara,Centro Amazonense
1304062,AM,332466,Q1750030,Tabatinga,,63635,64488,pt:Tabatinga (Amazonas),,-69.9462443752,-4.2318836756,Tabatinga,,Alto Solimões,Sudoeste Amazonense
1304104,AM,332485,Q1794336,Tapauá,,17930,17299,pt:Tapauá,,-63.1870948672,-5.6242235178,Tapaua,,Purus,Sul Amazonense
1304203,AM,332487,Q975545,Tefé,,62021,60154,pt:Tefé,,-64.7084196633,-3.3483724939,Tefe,,Tefé,Centro Amazonense
1304237,AM,332486,Q1793355,Tonantins,,18782,18610,pt:Tonantins,,-67.7764822807,-2.8610912498,Tonantins,,Alto Solimões,Sudoeste Amazonense
1304260,AM,332489,Q517607,Uarini,,13428,13387,pt:Uarini,,-65.1553456402,-2.9836092427,Uarini,,Tefé,Centro Amazonense
1304302,AM,332470,Q1816370,Urucará,,16968,16383,pt:Urucará,,-57.7598281746,-2.5366116718,Urucara,,Parintins,Centro Amazonense
1304401,AM,332472,Q1793833,Urucurituba,,22148,22537,pt:Urucurituba,,-58.1596410413,-3.1346331156,Urucurituba,,Itacoatiara,Centro Amazonense
1400027,RR,326296,Q1646965,Amajari,,11560,12394,pt:Amajari,,-61.4205901727,3.6521184454,Amajari,,Boa Vista,Norte de Roraima
1400050,RR,326291,Q1763240,Alto Alegre,,15933,15638,pt:Alto Alegre (Roraima),,-61.3140223901,2.9938229477,Alto Alegre,,Boa Vista,Norte de Roraima
1400100,RR,326286,Q181056,Boa Vista,true,332020,375374,pt:Boa Vista (Roraima),,-60.670532673,2.8166819191,Boa Vista,,Boa Vista,Norte de Roraima
1400159,RR,326289,Q1763254,Bonfim,,11945,12257,pt:Bonfim (Roraima),,-59.8780066289,3.3502886191,Bonfim,,Nordeste de Roraima,Norte de Roraima
1400175,RR,326284,Q1646914,Cantá,,16877,17868,pt:Cantá,,-60.6020628476,2.6076663984,Canta,,Nordeste de Roraima,Norte de Roraima
1400209,RR,326293,Q772563,Caracaraí,,20807,21564,pt:Caracaraí,,-61.1491768701,1.8038712473,Caracarai,,Caracaraí,Sul de Roraima
1400233,RR,326290,Q748315,Caroebe,,9493,9950,pt:Caroebe,,-59.6948100737,0.8726745072,Caroebe,,Sudeste de Roraima,Sul de Roraima
1400282,RR,326294,Q1786374,Iracema,,10859,11600,pt:Iracema (Roraima),,-61.052258585,2.1682147652,Iracema,,Caracaraí,Sul de Roraima
1400308,RR,326297,Q1637423,Mucajaí,,16852,17528,pt:Mucajaí,,-60.9115185306,2.4797722351,Mucajai,,Caracaraí,Sul de Roraima
1400407,RR,326282,Q1750038,Normandia,,10527,11045,pt:Normandia (Roraima),,-59.6352062836,3.8829782853,Normandia,,Nordeste de Roraima,Norte de Roraima
1400456,RR,326283,Q1647045,Pacaraima,,12375,15580,pt:Pacaraima,,-61.1473063471,4.4752593402,Pacaraima,,Boa Vista,Norte de Roraima
1400472,RR,326292,Q1646932,Rorainópolis,,28215,29533,pt:Rorainópolis,,-60.425060494,0.9371953936,Rorainopolis,,Sudeste de Roraima,Sul de Roraima
1400506,RR,326285,Q1646960,São João da Baliza,,7740,8052,pt:São João da Baliza,,-59.9060443452,0.9471574275,Sao Joao da Baliza,,Sudeste de Roraima,Sul de Roraima
1400605,RR,326295,Q1751337,São Luiz,,7597,7860,pt:São Luís (Roraima),,-60.0282667742,1.0181116274,Sao Luiz,,Sudeste de Roraima,Sul de Roraima
1400704,RR,326288,Q1637434,Uiramutã,,9836,10325,pt:Uiramutã,,-60.195716148,4.5854403875,Uiramuta,,Nordeste de Roraima,Norte de Roraima
1500107,PA,185660,Q1615298,Abaetetuba,,153380,156292,pt:Abaetetuba,,-48.8844038207,-1.7234698628,Abaetetuba,,Cametá,Nordeste Paraense
1500131,PA,185560,Q942803,Abel Figueiredo,,7231,7382,pt:Abel Figueiredo,,-48.3967621258,-4.9513908955,Abel Figueiredo,,Paragominas,Sudeste Paraense
1500206,PA,185641,Q1804839,Acará,,54096,55513,pt:Acará (Pará),,-48.2004564318,-1.9634365,Acara,,Tomé-Açu,Nordeste Paraense
1500305,PA,185616,Q389536,Afuá,,38144,38863,pt:Afuá,,-50.3914275892,-0.1591716938,Afua,,Furos de Breves,Marajó
1500347,PA,185622,Q1804899,Água Azul do Norte,,26682,27241,pt:Água Azul do Norte,,-50.4852745073,-6.8049488674,Agua Azul do Norte,,Parauapebas,Sudeste Paraense
1500404,PA,185674,Q2289869,Alenquer,,55246,56480,pt:Alenquer (Pará),,-54.7408623502,-1.951397505,Alenquer,,Santarém,Baixo Amazonas
1500503,PA,185668,Q2342023,Almeirim,,33195,34142,pt:Almeirim (Pará),,-52.5768350868,-1.5273388028,Almeirim,,Almeirim,Baixo Amazonas
1500602,PA,185554,Q434285,Altamira,,111435,113195,pt:Altamira,,-52.2143763052,-3.20565951,Altamira,,Altamira,Sudoeste Paraense
1500701,PA,185578,Q1804346,Anajás,,28466,28859,pt:Anajás,,-49.9450010405,-0.984451394,Anajas,,Furos de Breves,Marajó
1500800,PA,185610,Q485887,Ananindeua,,516057,525566,pt:Ananindeua,,-48.3720666542,-1.3687135683,Ananindeua,,Belém,Metropolitana de Belém
1500859,PA,185572,Q486142,Anapu,,27096,27161,pt:Anapu,,-51.2016217985,-3.4761046351,Anapu,,Altamira,Sudoeste Paraense
1500909,PA,90129,Q1804338,Augusto Corrêa,,44734,45516,pt:Augusto Corrêa,,-46.6416457857,-1.02292101,Augusto Correa,,Bragantina,Nordeste Paraense
1500958,PA,185553,Q2008798,Aurora do Pará,,30471,30896,pt:Aurora do Pará,,-47.5561746036,-2.1293760132,Aurora do Para,,Guamá,Nordeste Paraense
1501006,PA,185570,Q790342,Aveiro,,15947,16371,pt:Aveiro (Pará),,-55.3307343898,-3.6055952593,Aveiro,,Itaituba,Sudoeste Paraense
1501105,PA,185636,Q1804902,Bagre,,29808,30009,pt:Bagre (Pará),,-50.2219869206,-1.8898080604,Bagre,,Portel,Marajó
1501204,PA,185671,Q804068,Baião,,46110,46416,pt:Baião (Pará),,-49.6727533733,-2.7919618614,Baiao,,Cametá,Nordeste Paraense
1501253,PA,185658,Q1804877,Bannach,,3200,3310,pt:Bannach,,-50.4060471215,-7.3510721924,Bannach,,São Félix do Xingu,Sudeste Paraense
1501303,PA,185661,Q2009595,Barcarena,,121190,122294,pt:Barcarena (Pará),,-48.6270728925,-1.505767005,Barcarena,,Belém,Metropolitana de Belém
1501402,PA,185567,Q47593,Belém,true,1452275,1485732,pt:Belém (Pará),,-48.4878256875,-1.459845,Belem,,Belém,Metropolitana de Belém
1501451,PA,185582,Q609824,Belterra,,17249,17624,pt:Belterra,,-54.9426747393,-2.6490201695,Belterra,,Santarém,Baixo Amazonas
1501501,PA,185571,Q1804361,Benevides,,60990,61689,pt:Benevides,,-48.2418364506,-1.361437515,Benevides,,Belém,Metropolitana de Belém
1501576,PA,185590,Q2130429,Bom Jesus do Tocantins,,16517,16841,pt:Bom Jesus do Tocantins (Pará),,-48.5990399591,-5.0473627043,Bom Jesus do Tocantins,,Paragominas,Sudeste Paraense
1501600,PA,90139,Q2078868,Bonito,,15834,16038,pt:Bonito (Pará),,-47.3058918169,-1.3674743569,Bonito,,Bragantina,Nordeste Paraense
1501709,PA,90128,Q320487,Bragança,,124184,126436,pt:Bragança (Pará),,-46.7657542137,-1.0535239562,Braganca,,Bragantina,Nordeste Paraense
1501725,PA,185604,Q2008779,Brasil Novo,,14689,15190,pt:Brasil Novo (Pará),,-52.5434411923,-3.297803704,Brasil Novo,,Altamira,Sudoeste Paraense
1501758,PA,185595,Q1975881,Brejo Grande do Araguaia,,7182,7392,pt:Brejo Grande do Araguaia,,-48.4057604224,-5.7072961538,Brejo Grande do Araguaia,,Marabá,Sudeste Paraense
1501782,PA,185672,Q2008139,Breu Branco,,64194,64738,pt:Breu Branco,,-49.5698796833,-3.7781354129,Breu Branco,,Tucuruí,Sudeste Paraense
1501808,PA,185663,Q1804770,Breves,,99896,101891,pt:Breves,,-50.480894799,-1.6907365,Breves,,Furos de Breves,Marajó
1501907,PA,185609,Q2009108,Bujaru,,28331,28832,pt:Bujaru,,-48.0358750144,-1.5139914623,Bujaru,,Castanhal,Metropolitana de Belém
1501956,PA,185645,Q947745,Cachoeira do Piriá,,32947,33178,pt:Cachoeira do Piriá,,-46.5473914166,-1.7528970049,Cachoeira do Piria,,Guamá,Nordeste Paraense
1502004,PA,185614,Q1804813,Cachoeira do Arari,,23110,23466,pt:Cachoeira do Arari,,-48.9606675774,-1.0087862656,Cachoeira do Arari,,Arari,Marajó
1502103,PA,185644,Q1805206,Cametá,,134100,136390,pt:Cametá,,-49.497830169,-2.24683848,Cameta,,Cametá,Nordeste Paraense
1502152,PA,185626,Q2009474,Canaã dos Carajás,,36027,36050,pt:Canaã dos Carajás,,-49.8489584319,-6.5321966156,Canaa dos Carajas,,Parauapebas,Sudeste Paraense
1502202,PA,90136,Q1947031,Capanema,,67150,68616,pt:Capanema (Pará),,-47.1751261231,-1.192441995,Capanema,,Bragantina,Nordeste Paraense
1502301,PA,2702845,Q955914,Capitão Poço,,52839,54179,pt:Capitão Poço,,-47.0628253774,-1.7461872932,Capitao Poco,,Guamá,Nordeste Paraense
1502400,PA,185664,Q984581,Castanhal,,195253,198294,pt:Castanhal,,-47.9266431419,-1.295756805,Castanhal,,Castanhal,Metropolitana de Belém
1502509,PA,185548,Q1899080,Chaves,,23066,23482,pt:Chaves (Pará),,-49.9893186051,-0.1624372901,Chaves,,Arari,Marajó
1502608,PA,185598,Q2008619,Colares,,11759,12040,pt:Colares (Pará),,-48.2887284319,-0.932091244,Colares,,Salgado,Nordeste Paraense
1502707,PA,185643,Q1788037,Conceição do Araguaia,,46571,47734,pt:Conceição do Araguaia,,-49.2645008125,-8.26486353,Conceicao do Araguaia,,Conceição do Araguaia,Sudeste Paraense
1502756,PA,185673,Q2008125,Concórdia do Pará,,32395,32847,pt:Concórdia do Pará,,-47.949886939,-1.9845214628,Concordia do Para,,Tomé-Açu,Nordeste Paraense
1502764,PA,185615,Q2008271,Cumaru do Norte,,13093,13179,pt:Cumaru do Norte,,-50.7715783775,-7.8111065369,Cumaru do Norte,,São Félix do Xingu,Sudeste Paraense
1502772,PA,185662,Q2008449,Curionópolis,,17453,18014,pt:Curionópolis,,-49.602214225,-6.0968199522,Curionopolis,,Parauapebas,Sudeste Paraense
1502806,PA,185634,Q2011907,Curralinho,,33490,33893,pt:Curralinho,,-49.7915228471,-1.8094234197,Curralinho,,Furos de Breves,Marajó
1502855,PA,185607,Q2008226,Curuá,,13996,14197,pt:Curuá (Pará),,-55.1196786087,-1.8899287043,Curua,,Santarém,Baixo Amazonas
1502905,PA,185576,Q1814514,Curuçá,,38959,39540,pt:Curuçá,,-47.8512650859,-0.73249551,Curuca,,Salgado,Nordeste Paraense
1502939,PA,185640,Q2008541,Dom Eliseu,,58071,58956,pt:Dom Eliseu,,-47.555914886,-4.29077772,Dom Eliseu,,Paragominas,Sudeste Paraense
1502954,PA,185565,Q2008261,Eldorado do Carajás,,32892,33674,pt:Eldorado do Carajás,,-49.3739519422,-6.1035251611,Eldorado do Carajas,,Parauapebas,Sudeste Paraense
1503002,PA,185656,Q2246005,Faro,,7009,7319,pt:Faro (Pará),,-56.7457530173,-2.1729752419,Faro,,Óbidos,Baixo Amazonas
1503044,PA,185558,Q2008493,Floresta do Araguaia,,19746,20080,pt:Floresta do Araguaia,,-49.6975784122,-7.5587008724,Floresta do Araguaia,,Conceição do Araguaia,Sudeste Paraense
1503077,PA,185602,Q2008750,Garrafão do Norte,,25363,26020,pt:Garrafão do Norte,,-47.0450460173,-1.9316970431,Garrafao do Norte,,Guamá,Nordeste Paraense
1503093,PA,185650,Q2008317,Goianésia do Pará,,39352,39857,pt:Goianésia do Pará,,-49.1010449237,-3.842468,Goianesia do Para,,Paragominas,Sudeste Paraense
1503101,PA,185621,Q2011913,Gurupá,,32458,32991,pt:Gurupá,,-51.6436957234,-1.404918,Gurupa,,Portel,Marajó
1503200,PA,185585,Q2009058,Igarapé-Açu,,37753,38588,pt:Igarapé-Açu,,-47.622375492,-1.124322,Igarape-Acu,,Bragantina,Nordeste Paraense
1503309,PA,185630,Q651613,Igarapé-Miri,,60994,62355,pt:Igarapé-Miri,,-48.9622994689,-1.983116,Igarape-Miri,,Cametá,Nordeste Paraense
1503408,PA,185666,Q1880531,Inhangapi,,11388,11559,pt:Inhangapi,,-47.9133927466,-1.4265819809,Inhangapi,,Castanhal,Metropolitana de Belém
1503457,PA,185574,Q675175,Ipixuna do Pará,,62237,62455,pt:Ipixuna do Pará,,-47.4997175888,-2.5575285,Ipixuna do Para,,Guamá,Nordeste Paraense
1503507,PA,185563,Q2008410,Irituia,,31673,32504,pt:Irituia,,-47.4407556128,-1.771474995,Irituia,,Guamá,Nordeste Paraense
1503606,PA,185625,Q655734,Itaituba,,98523,101097,pt:Itaituba,,-55.9900488573,-4.26372948,Itaituba,,Itaituba,Sudoeste Paraense
1503705,PA,185601,Q2008167,Itupiranga,,51835,53182,pt:Itupiranga,,-49.3244258613,-5.1288370264,Itupiranga,,Tucuruí,Sudeste Paraense
1503754,PA,185577,Q1805252,Jacareacanga,,8059,8899,pt:Jacareacanga,,-57.7663398584,-6.2235517314,Jacareacanga,,Itaituba,Sudoeste Paraense
1503804,PA,185620,Q1967407,Jacundá,,57526,58457,pt:Jacundá (Pará),,-49.1127815626,-4.448405475,Jacunda,,Tucuruí,Sudeste Paraense
1503903,PA,185618,Q1008242,Juruti,,56325,56908,pt:Juruti,,-56.0949976884,-2.155252995,Juruti,,Óbidos,Baixo Amazonas
1504000,PA,185657,Q2008564,Limoeiro do Ajuru,,28138,28583,pt:Limoeiro do Ajuru,,-49.3815339012,-1.8919485,Limoeiro do Ajuru,,Cametá,Nordeste Paraense
1504059,PA,185589,Q2008401,Mãe do Rio,,29260,29917,pt:Mãe do Rio,,-47.5522901795,-2.0477074408,Mae do Rio,,Guamá,Nordeste Paraense
1504109,PA,185592,Q2008546,Magalhães Barata,,8316,8523,pt:Magalhães Barata,,-47.5991818965,-0.795850156,Magalhaes Barata,,Salgado,Nordeste Paraense
1504208,PA,185659,Q509818,Marabá,,271594,275086,pt:Marabá,,-49.1420253334,-5.3526057631,Maraba,,Marabá,Sudeste Paraense
1504307,PA,185588,Q2089279,Maracanã,,28679,29429,pt:Maracanã (Pará),,-47.4552679594,-0.76241946,Maracana,,Salgado,Nordeste Paraense
1504406,PA,185649,Q1990477,Marapanim,,27569,28220,pt:Marapanim,,-47.7025487538,-0.7121509963,Marapanim,,Salgado,Nordeste Paraense
1504422,PA,185631,Q1805166,Marituba,,127858,129321,pt:Marituba,,-48.3405358778,-1.3464172656,Marituba,,Belém,Metropolitana de Belém
1504455,PA,185581,Q2009048,Medicilândia,,30726,31213,pt:Medicilândia,,-52.8883453507,-3.4454174122,Medicilandia,,Altamira,Sudoeste Paraense
1504505,PA,185584,Q2011923,Melgaço,,26897,27415,pt:Melgaço (Pará),,-50.7174646977,-1.8034466986,Melgaco,,Portel,Marajó
1504604,PA,185623,Q2008596,Mocajuba,,30277,30736,pt:Mocajuba,,-49.5090234613,-2.5828729733,Mocajuba,,Cametá,Nordeste Paraense
1504703,PA,185561,Q2008213,Moju,,79825,80988,pt:Moju,,-48.7671991274,-1.885889,Moju,,Tomé-Açu,Nordeste Paraense
1504752,PA,3049385,Q10331562,Mojuí dos Campos,,15646,15982,pt:Mojuí dos Campos,,-54.64326888,-2.68245777,Mojui dos Campos,,Santarém,Baixo Amazonas
1504802,PA,185593,Q2289897,Monte Alegre,,56466,57900,pt:Monte Alegre (Pará),,-54.0733747256,-2.003328,Monte Alegre,,Santarém,Baixo Amazonas
1504901,PA,185606,Q1804369,Muaná,,39231,39783,pt:Muaná,,-49.2168324425,-1.5300262084,Muana,,Arari,Marajó
1504950,PA,185573,Q1121422,Nova Esperança do Piriá,,20789,21291,pt:Nova Esperança do Piriá,,-46.9620928837,-2.267625989,Nova Esperanca do Piria,,Guamá,Nordeste Paraense
1504976,PA,185679,Q728098,Nova Ipixuna,,16221,16499,pt:Nova Ipixuna,,-49.079886938,-4.923086307,Nova Ipixuna,,Tucuruí,Sudeste Paraense
1505007,PA,2702846,Q2009430,Nova Timboteua,,14942,15218,pt:Nova Timboteua,,-47.3932022765,-1.2041436475,Nova Timboteua,,Bragantina,Nordeste Paraense
1505031,PA,185651,Q1787759,Novo Progresso,,25071,25758,pt:Novo Progresso,,-55.419870118,-7.0348359133,Novo Progresso,,Itaituba,Sudoeste Paraense
1505064,PA,185647,Q769811,Novo Repartimento,,73802,74602,pt:Novo Repartimento,,-49.9486382443,-4.2481485,Novo Repartimento,,Tucuruí,Sudeste Paraense
1505106,PA,185569,Q577167,Óbidos,,50727,51964,pt:Óbidos (Pará),,-55.5163235097,-1.9092354959,Obidos,,Óbidos,Baixo Amazonas
1505205,PA,185638,Q2008580,Oeiras do Pará,,31619,32168,pt:Oeiras do Pará,,-49.8551061088,-2.004734,Oeiras do Para,,Cametá,Nordeste Paraense
1505304,PA,185652,Q2011919,Oriximiná,,71078,72160,pt:Oriximiná,,-55.8627995152,-1.7637535,Oriximina,,Óbidos,Baixo Amazonas
1505403,PA,90140,Q1829502,Ourém,,17356,17721,pt:Ourém (Pará),,-47.1176193629,-1.5489471423,Ourem,,Guamá,Nordeste Paraense
1505437,PA,185605,Q2008237,Ourilândia do Norte,,31921,32319,pt:Ourilândia do Norte,,-51.0908327747,-6.7406170864,Ourilandia do Norte,,São Félix do Xingu,Sudeste Paraense
1505486,PA,185552,Q592117,Pacajá,,46383,46986,pt:Pacajá,,-50.6348408304,-3.8303057038,Pacaja,,Altamira,Sudoeste Paraense
1505494,PA,185566,Q2009230,Palestina do Pará,,7386,7596,pt:Palestina do Pará,,-48.3217937262,-5.7499341062,Palestina do Para,,Marabá,Sudeste Paraense
1505502,PA,185667,Q935005,Paragominas,,110026,111764,pt:Paragominas,,-47.3569615611,-2.9941905,Paragominas,,Paragominas,Sudeste Paraense
1505536,PA,185575,Q1806100,Parauapebas,,202356,202882,pt:Parauapebas,,-49.9007806343,-6.0727298876,Parauapebas,,Parauapebas,Sudeste Paraense
1505551,PA,185608,Q2008624,Pau d'Arco,,5341,5557,pt:Pau-d'Arco (Pará),,-50.0482755319,-7.836794404,Pau d'Arco,,Redenção,Sudeste Paraense
1505601,PA,90135,Q2009222,Peixe-Boi,,7860,8073,pt:Peixe-Boi (Pará),,-47.3179270216,-1.1895692408,Peixe-Boi,,Bragantina,Nordeste Paraense
1505635,PA,185629,Q2008277,Piçarra,,12632,12983,pt:Piçarra,,-48.8684006672,-6.4536762346,Picarra,,Redenção,Sudeste Paraense
1505650,PA,185676,Q602405,Placas,,30109,30293,pt:Placas,,-54.2169681313,-3.8673155621,Placas,,Santarém,Baixo Amazonas
1505700,PA,185678,Q1804377,Ponta de Pedras,,30219,30608,pt:Ponta de Pedras,,-48.87178556,-1.3965999975,Ponta de Pedras,,Arari,Marajó
1505809,PA,185632,Q2089210,Portel,,60322,61126,pt:Portel (Pará),,-50.8224904422,-1.936451,Portel,,Portel,Marajó
1505908,PA,185654,Q2011894,Porto de Moz,,39991,40458,pt:Porto de Moz,,-52.242476919,-1.7460900888,Porto de Moz,,Almeirim,Baixo Amazonas
1506005,PA,185568,Q2009663,Prainha,,29067,29886,pt:Prainha (Pará),,-53.4818139408,-1.8056945,Prainha,,Santarém,Baixo Amazonas
1506104,PA,90134,Q2329733,Primavera,,10534,10792,pt:Primavera (Pará),,-47.1172512589,-0.9401115159,Primavera,,Bragantina,Nordeste Paraense
1506112,PA,90132,Q2008521,Quatipuru,,13237,13512,pt:Quatipuru,,-47.0067869936,-0.9001158537,Quatipuru,,Bragantina,Nordeste Paraense
1506138,PA,185557,Q2381693,Redenção,,82464,83997,pt:Redenção (Pará),,-50.0296418255,-8.0276045,Redencao,,Redenção,Sudeste Paraense
1506161,PA,185549,Q2008301,Rio Maria,,17705,18186,pt:Rio Maria,,-50.0464108775,-7.3111152447,Rio Maria,,Redenção,Sudeste Paraense
1506187,PA,185603,Q2008429,Rondon do Pará,,50925,51903,pt:Rondon do Pará,,-48.0699737494,-4.777821727,Rondon do Para,,Paragominas,Sudeste Paraense
1506195,PA,185564,Q2009519,Rurópolis,,49093,49503,pt:Rurópolis,,-54.9058622599,-4.09906539,Ruropolis,,Itaituba,Sudoeste Paraense
1506203,PA,185586,Q1008198,Salinópolis,,39569,40424,pt:Salinópolis,,-47.3531202632,-0.623638,Salinopolis,,Salgado,Nordeste Paraense
1506302,PA,185583,Q1921992,Salvaterra,,23096,23424,pt:Salvaterra (Pará),,-48.5131865994,-0.7545259744,Salvaterra,,Arari,Marajó
1506351,PA,185551,Q2009202,Santa Bárbara do Pará,,20492,20704,pt:Santa Bárbara do Pará,,-48.2977406498,-1.229439467,Santa Barbara do Para,,Belém,Metropolitana de Belém
1506401,PA,185599,Q640618,Santa Cruz do Arari,,9845,9939,pt:Santa Cruz do Arari,,-49.1716155661,-0.6599741256,Santa Cruz do Arari,,Arari,Marajó
1506500,PA,185646,Q2008554,Santa Izabel do Pará,,68836,69746,pt:Santa Izabel do Pará,,-48.163059941,-1.2973959013,Santa Izabel do Para,,Castanhal,Metropolitana de Belém
1506559,PA,185628,Q2008573,Santa Luzia do Pará,,19316,19852,pt:Santa Luzia do Pará,,-46.9061692027,-1.5188278914,Santa Luzia do Para,,Guamá,Nordeste Paraense
1506583,PA,185600,Q2009212,Santa Maria das Barreiras,,20849,21042,pt:Santa Maria das Barreiras,,-49.7193518572,-8.8705505397,Santa Maria das Barreiras,,Conceição do Araguaia,Sudeste Paraense
1506609,PA,185580,Q1901157,Santa Maria do Pará,,24186,24725,pt:Santa Maria do Pará,,-47.5746954138,-1.3478664593,Santa Maria do Para,,Bragantina,Nordeste Paraense
1506708,PA,185665,Q2008589,Santana do Araguaia,,70764,71187,pt:Santana do Araguaia,,-50.3448043211,-9.329424525,Santana do Araguaia,,Conceição do Araguaia,Sudeste Paraense
1506807,PA,185639,Q659450,Santarém,,296302,302667,pt:Santarém (Pará),,-54.7185701673,-2.43621333,Santarem,,Santarém,Baixo Amazonas
1506906,PA,185635,Q1811192,Santarém Novo,,6526,6664,pt:Santarém Novo,,-47.4009247449,-0.9287195358,Santarem Novo,,Bragantina,Nordeste Paraense
1507003,PA,185677,Q2009548,Santo Antônio do Tauá,,30611,31038,pt:Santo Antônio do Tauá,,-48.1324330748,-1.1516925,Santo Antonio do Taua,,Castanhal,Metropolitana de Belém
1507102,PA,185613,Q632789,São Caetano de Odivelas,,17563,17970,pt:São Caetano de Odivelas,,-48.0258054981,-0.74661776,Sao Caetano de Odivelas,,Salgado,Nordeste Paraense
1507151,PA,185559,Q1841455,São Domingos do Araguaia,,24859,25358,pt:São Domingos do Araguaia,,-48.7203734108,-5.549841,Sao Domingos do Araguaia,,Marabá,Sudeste Paraense
1507201,PA,185624,Q955985,São Domingos do Capim,,31123,31837,pt:São Domingos do Capim,,-47.7747845692,-1.6758145,Sao Domingos do Capim,,Guamá,Nordeste Paraense
1507300,PA,185669,Q1807317,São Félix do Xingu,,124806,124763,pt:São Félix do Xingu,,-51.993782524,-6.6424832783,Sao Felix do Xingu,,São Félix do Xingu,Sudeste Paraense
1507409,PA,185642,Q2008769,São Francisco do Pará,,15454,15833,pt:São Francisco do Pará,,-47.7905146107,-1.1701887847,Sao Francisco do Para,,Bragantina,Nordeste Paraense
1507458,PA,185550,Q2008501,São Geraldo do Araguaia,,24188,24991,pt:São Geraldo do Araguaia,,-48.5557124862,-6.39895797,Sao Geraldo do Araguaia,,Redenção,Sudeste Paraense
1507466,PA,185619,Q2008293,São João da Ponta,,5970,6059,pt:São João da Ponta,,-47.9207241656,-0.8510021453,Sao Joao da Ponta,,Salgado,Nordeste Paraense
1507474,PA,185653,Q2008440,São João de Pirabas,,22415,22842,pt:São João de Pirabas,,-47.1726742979,-0.7664425315,Sao Joao de Pirabas,,Salgado,Nordeste Paraense
1507508,PA,185555,Q2008417,São João do Araguaia,,13616,13940,pt:São João do Araguaia,,-48.788633402,-5.3590027244,Sao Joao do Araguaia,,Marabá,Sudeste Paraense
1507607,PA,185611,Q2008532,São Miguel do Guamá,,57364,58328,pt:São Miguel do Guamá,,-47.4824089445,-1.6171359145,Sao Miguel do Guama,,Guamá,Nordeste Paraense
1507706,PA,185591,Q1868533,São Sebastião da Boa Vista,,25904,26301,pt:São Sebastião da Boa Vista,,-49.5323121746,-1.7188505,Sao Sebastiao da Boa Vista,,Furos de Breves,Marajó
1507755,PA,185556,Q2289887,Sapucaia,,5766,5849,pt:Sapucaia (Pará),,-49.7035807119,-6.9428571126,Sapucaia,,Redenção,Sudeste Paraense
1507805,PA,185633,Q609027,Senador José Porfírio,,11357,11839,pt:Senador José Porfírio,,-51.953056418,-2.5948504183,Senador Jose Porfirio,,Altamira,Sudoeste Paraense
1507904,PA,185596,Q1016643,Soure,,24682,25181,pt:Soure (Pará),,-48.5160126623,-0.7259255,Soure,,Arari,Marajó
1507953,PA,185612,Q2289846,Tailândia,,103321,103664,pt:Tailândia (Pará),,-48.9512816296,-2.9370795,Tailandia,,Tomé-Açu,Nordeste Paraense
1507961,PA,185637,Q2289951,Terra Alta,,11399,11591,pt:Terra Alta (Pará),,-47.9078083484,-1.0348266636,Terra Alta,,Salgado,Nordeste Paraense
1507979,PA,185597,Q2003795,Terra Santa,,18257,18619,pt:Terra Santa (Pará),,-56.4909047722,-2.1081144737,Terra Santa,,Óbidos,Baixo Amazonas
1508001,PA,185655,Q1805230,Tomé-Açu,,61709,62854,pt:Tomé-Açu,,-48.1468965866,-2.4193668553,Tome-Acu,,Tomé-Açu,Nordeste Paraense
1508035,PA,90131,Q2008789,Tracuateua,,30108,30656,pt:Tracuateua,,-46.8994783371,-1.0687840586,Tracuateua,,Bragantina,Nordeste Paraense
1508050,PA,185587,Q2009409,Trairão,,18469,18807,pt:Trairão,,-55.9961700349,-4.6998191497,Trairao,,Itaituba,Sudoeste Paraense
1508084,PA,185594,Q2445520,Tucumã,,38508,39059,pt:Tucumã (Pará),,-51.1395392466,-6.7499720074,Tucuma,,São Félix do Xingu,Sudeste Paraense
1508100,PA,185562,Q374432,Tucuruí,,110516,112148,pt:Tucuruí,,-49.6671843672,-3.7668890843,Tucurui,,Tucuruí,Sudeste Paraense
1508126,PA,185627,Q2008337,Ulianópolis,,57525,57632,pt:Ulianópolis,,-47.503144755,-3.75719301,Ulianopolis,,Paragominas,Sudeste Paraense
1508159,PA,185670,Q2009083,Uruará,,44258,45517,pt:Uruará,,-53.7370310505,-3.7065285,Uruara,,Altamira,Sudoeste Paraense
1508209,PA,185648,Q1804913,Vigia,,52216,53191,pt:Vigia (Pará),,-48.1414985852,-0.8555325737,Vigia,,Salgado,Nordeste Paraense
1508308,PA,90130,Q772569,Viseu,,59735,61049,pt:Viseu (Pará),,-46.1387652161,-1.2032785267,Viseu,,Guamá,Nordeste Paraense
1508357,PA,185675,Q2008512,Vitória do Xingu,,14719,14987,pt:Vitória do Xingu,,-52.0112603538,-2.8837657102,Vitoria do Xingu,,Altamira,Sudoeste Paraense
1508407,PA,185617,Q2008249,Xinguara,,43530,44410,pt:Xinguara,,-49.9427005844,-7.1015128271,Xinguara,,Redenção,Sudeste Paraense
1600055,AP,331467,Q1754413,Serra do Navio,,5111,5306,pt:Serra do Navio,,-52.0035384353,0.897841041,Serra do Navio,,Macapá,Sul do Amapá
1600105,AP,331477,Q586263,Amapá,,8757,9029,pt:Amapá (município),,-50.7932144703,2.0539212447,Amapa,,Amapá,Norte do Amapá
1600154,AP,331465,Q1772647,Pedra Branca do Amapari,,15125,15931,pt:Pedra Branca do Amapari,,-51.9465942733,0.7768828606,Pedra Branca do Amapari,,Macapá,Sul do Amapá
1600204,AP,331472,Q1754431,Calçoene,,10525,10926,pt:Calçoene,,-50.9447727343,2.4965590446,Calcoene,,Oiapoque,Norte do Amapá
1600212,AP,331466,Q1754422,Cutias,,5637,5864,pt:Cutias do Araguary,,-50.8016260299,0.9710780554,Cutias,,Macapá,Sul do Amapá
1600238,AP,331479,Q1647054,Ferreira Gomes,,7270,7591,pt:Ferreira Gomes,,-51.187429046,0.8539773931,Ferreira Gomes,,Macapá,Sul do Amapá
1600253,AP,331468,Q368933,Itaubal,,5172,5387,pt:Itaubal,,-50.7001794374,0.6006532883,Itaubal,,Macapá,Sul do Amapá
1600279,AP,331469,Q1117969,Laranjal do Jari,,47554,49446,pt:Laranjal do Jari,,-52.5390207369,-0.8556645,Laranjal do Jari,,Mazagão,Sul do Amapá
1600303,AP,331473,Q180215,Macapá,true,474706,493634,pt:Macapá,,-51.057405457,0.03895101,Macapa,,Macapá,Sul do Amapá
1600402,AP,331475,Q1800704,Mazagão,,20387,21206,pt:Mazagão (Amapá),,-51.2860768561,-0.1243963288,Mazagao,,Mazagão,Sul do Amapá
1600501,AP,331471,Q906717,Oiapoque,,25514,26627,pt:Oiapoque,,-51.8305525553,3.8511307326,Oiapoque,,Oiapoque,Norte do Amapá
1600535,AP,331470,Q1772692,Porto Grande,,20611,21484,pt:Porto Grande,,-51.414448823,0.7125547018,Porto Grande,,Macapá,Sul do Amapá
1600550,AP,331474,Q1772625,Pracuúba,,4779,4993,pt:Pracuuba,,-50.7842537213,1.7425084871,Pracuuba,,Amapá,Norte do Amapá
1600600,AP,331476,Q1994845,Santana,,115471,119610,pt:Santana (Amapá),,-51.1728464651,-0.0383734791,Santana,,Macapá,Sul do Amapá
1600709,AP,331478,Q1800762,Tartarugalzinho,,16112,16855,pt:Tartarugalzinho,,-50.9127861523,1.5098482403,Tartarugalzinho,,Amapá,Norte do Amapá
1600808,AP,331464,Q1772675,Vitória do Jari,,14991,15605,pt:Vitória do Jari,,-52.4196147796,-0.9189770885,Vitoria do Jari,,Mazagão,Sul do Amapá
1700251,TO,336740,Q1784836,Abreulândia,,2571,2564,pt:Abreulândia,,-49.1624375555,-9.621790712,Abreulandia,,Miracema do Tocantins,Ocidental do Tocantins
1700301,TO,336780,Q1802133,Aguiarnópolis,,6460,6572,pt:Aguiarnópolis,,-47.4704565879,-6.5471708206,Aguiarnopolis,,Bico do Papagaio,Ocidental do Tocantins
1700350,TO,336857,Q1802116,Aliança do Tocantins,,5527,5434,pt:Aliança do Tocantins,,-48.9412400221,-11.3037430465,Alianca do Tocantins,,Gurupi,Ocidental do Tocantins
1700400,TO,336768,Q566,Almas,,7273,7131,pt:Almas,,-47.1741716842,-11.5745234694,Almas,,Dianópolis,Oriental do Tocantins
1700707,TO,336831,Q2102493,Alvorada,,8516,8427,pt:Alvorada (Tocantins),,-49.1268114067,-12.4788153208,Alvorada,,Gurupi,Ocidental do Tocantins
1701002,TO,336748,Q1948373,Ananás,,9749,9607,pt:Ananás (Tocantins),,-48.0797646062,-6.3628181541,Ananas,,Bico do Papagaio,Ocidental do Tocantins
1701051,TO,336775,Q2011594,Angico,,3423,3417,pt:Angico (Tocantins),,-47.8620778392,-6.3877527497,Angico,,Bico do Papagaio,Ocidental do Tocantins
1701101,TO,336847,Q1802077,Aparecida do Rio Negro,,4726,4741,pt:Aparecida do Rio Negro,,-47.9766700114,-9.9558777146,Aparecida do Rio Negro,,Porto Nacional,Oriental do Tocantins
1701309,TO,336875,Q1801778,Aragominas,,5865,5786,pt:Aragominas,,-48.5234301923,-7.1643492714,Aragominas,,Araguaína,Ocidental do Tocantins
1701903,TO,336771,Q1801734,Araguacema,,7003,7016,pt:Araguacema,,-49.5618126396,-8.8018025441,Araguacema,,Miracema do Tocantins,Ocidental do Tocantins
1702000,TO,336846,Q593716,Araguaçu,,8692,8567,pt:Araguaçu,,-49.8286124433,-12.9255837119,Araguacu,,Rio Formoso,Ocidental do Tocantins
1702109,TO,336824,Q625279,Araguaína,,175960,177517,pt:Araguaína,,-48.2087052519,-7.1913289397,Araguaina,,Araguaína,Ocidental do Tocantins
1702158,TO,336869,Q957649,Araguanã,,5645,5663,pt:Araguanã (Tocantins),,-48.6437495469,-6.58224942,Araguana,,Araguaína,Ocidental do Tocantins
1702208,TO,336850,Q1783966,Araguatins,,35216,35346,pt:Araguatins,,-48.123507343,-5.650586473,Araguatins,,Bico do Papagaio,Ocidental do Tocantins
1702307,TO,336792,Q609102,Arapoema,,6756,6670,pt:Arapoema,,-49.0756373853,-7.6525697354,Arapoema,,Araguaína,Ocidental do Tocantins
1702406,TO,336746,Q1801696,Arraias,,10727,10601,pt:Arraias,,-46.9461070586,-12.9344198593,Arraias,,Dianópolis,Oriental do Tocantins
1702554,TO,336794,Q1801708,Augustinópolis,,18089,18178,pt:Augustinópolis,,-47.880956791,-5.4654142959,Augustinopolis,,Bico do Papagaio,Ocidental do Tocantins
1702703,TO,336849,Q1801726,Aurora do Tocantins,,3735,3731,pt:Aurora do Tocantins,,-46.4070829809,-12.7084898611,Aurora do Tocantins,,Dianópolis,Oriental do Tocantins
1702901,TO,336864,Q1801670,Axixá do Tocantins,,9776,9725,pt:Axixá do Tocantins,,-47.7741560325,-5.6243090659,Axixa do Tocantins,,Bico do Papagaio,Ocidental do Tocantins
1703008,TO,336811,Q1801746,Babaçulândia,,10752,10662,pt:Babaçulândia,,-47.758816127,-7.2018645321,Babaculandia,,Araguaína,Ocidental do Tocantins
1703057,TO,336789,Q2011614,Bandeirantes do Tocantins,,3500,3512,pt:Bandeirantes do Tocantins,,-48.5783806049,-7.7648591413,Bandeirantes do Tocantins,,Araguaína,Ocidental do Tocantins
1703073,TO,336856,Q512635,Barra do Ouro,,4544,4549,pt:Barra do Ouro,,-47.6871349692,-7.6917665987,Barra do Ouro,,Jalapão,Oriental do Tocantins
1703107,TO,336844,Q1801737,Barrolândia,,5643,5614,pt:Barrolândia,,-48.7314605907,-9.8316533645,Barrolandia,,Miracema do Tocantins,Ocidental do Tocantins
1703206,TO,336807,Q2011573,Bernardo Sayão,,4518,4469,pt:Bernardo Sayão (Tocantins),,-48.8990543467,-7.8685124833,Bernardo Sayao,,Miracema do Tocantins,Ocidental do Tocantins
1703305,TO,336822,Q599288,Bom Jesus do Tocantins,,4700,4779,pt:Bom Jesus do Tocantins (Tocantins),,-48.1663804935,-8.9633480129,Bom Jesus do Tocantins,,Porto Nacional,Oriental do Tocantins
1703602,TO,336759,Q1801749,Brasilândia do Tocantins,,2199,2191,pt:Brasilândia do Tocantins,,-48.4853744191,-8.3848893511,Brasilandia do Tocantins,,Miracema do Tocantins,Ocidental do Tocantins
1703701,TO,336833,Q1801741,Brejinho de Nazaré,,5499,5475,pt:Brejinho de Nazaré,,-48.5586602282,-11.0108050562,Brejinho de Nazare,,Gurupi,Ocidental do Tocantins
1703800,TO,336848,Q1801703,Buriti do Tocantins,,11135,11197,pt:Buriti do Tocantins,,-48.2232501281,-5.3135388564,Buriti do Tocantins,,Bico do Papagaio,Ocidental do Tocantins
1703826,TO,336825,Q2289907,Cachoeirinha,,2276,2266,pt:Cachoeirinha (Tocantins),,-47.9141977786,-6.1132416465,Cachoeirinha,,Bico do Papagaio,Ocidental do Tocantins
1703842,TO,336770,Q1801753,Campos Lindos,,9795,9917,pt:Campos Lindos,,-46.8019743467,-7.9716813941,Campos Lindos,,Jalapão,Oriental do Tocantins
1703867,TO,336752,Q1801690,Cariri do Tocantins,,4296,4321,pt:Cariri do Tocantins,,-49.171040729,-11.8889974639,Cariri do Tocantins,,Gurupi,Ocidental do Tocantins
1703883,TO,336755,Q1801654,Carmolândia,,2555,2556,pt:Carmolândia,,-48.3959599306,-7.0314787779,Carmolandia,,Araguaína,Ocidental do Tocantins
1703891,TO,336806,Q1801716,Carrasco Bonito,,4055,4059,pt:Carrasco Bonito,,-48.0306334266,-5.3226613549,Carrasco Bonito,,Bico do Papagaio,Ocidental do Tocantins
1703909,TO,336827,Q1801760,Caseara,,5265,5295,pt:Caseara,,-49.9486922678,-9.2674062189,Caseara,,Miracema do Tocantins,Ocidental do Tocantins
1704105,TO,336793,Q2116769,Centenário,,2866,2874,pt:Centenário (Tocantins),,-47.3383985146,-8.9584636391,Centenario,,Jalapão,Oriental do Tocantins
1704600,TO,336863,Q773264,Chapada de Areia,,1407,1401,pt:Chapada de Areia,,-49.183107858,-10.1419885833,Chapada de Areia,,Rio Formoso,Ocidental do Tocantins
1705102,TO,336820,Q1801647,Chapada da Natividade,,3364,3334,pt:Chapada da Natividade,,-47.7539048919,-11.6242678314,Chapada da Natividade,,Dianópolis,Oriental do Tocantins
1705508,TO,336843,Q1801758,Colinas do Tocantins,,34839,34990,pt:Colinas do Tocantins,,-48.4815945437,-8.0546246755,Colinas do Tocantins,,Araguaína,Ocidental do Tocantins
1705557,TO,336868,Q746335,Combinado,,4874,4843,pt:Combinado,,-46.5520723403,-12.818607672,Combinado,,Dianópolis,Oriental do Tocantins
1705607,TO,336816,Q1801713,Conceição do Tocantins,,4179,4124,pt:Conceição do Tocantins,,-47.2928688108,-12.217277767,Conceicao do Tocantins,,Dianópolis,Oriental do Tocantins
1706001,TO,336873,Q672837,Couto Magalhães,,5529,5536,pt:Couto de Magalhães (município),,-49.1765715709,-8.3551183696,Couto Magalhaes,,Miracema do Tocantins,Ocidental do Tocantins
1706100,TO,336866,Q1798698,Cristalândia,,7374,7300,pt:Cristalândia,,-49.1863002913,-10.5907246371,Cristalandia,,Rio Formoso,Ocidental do Tocantins
1706258,TO,336814,Q1801175,Crixás do Tocantins,,1708,1708,pt:Crixás do Tocantins,,-48.9155138256,-11.1042742936,Crixas do Tocantins,,Gurupi,Ocidental do Tocantins
1706506,TO,336872,Q1801100,Darcinópolis,,5988,6018,pt:Darcinópolis,,-47.7521611103,-6.7123510015,Darcinopolis,,Bico do Papagaio,Ocidental do Tocantins
1707009,TO,336871,Q1801150,Dianópolis,,21738,21850,pt:Dianópolis,,-46.8204090669,-11.6252318781,Dianopolis,,Dianópolis,Oriental do Tocantins
1707108,TO,336784,Q649398,Divinópolis do Tocantins,,6868,6856,pt:Divinópolis do Tocantins,,-49.2054131874,-9.7953011402,Divinopolis do Tocantins,,Miracema do Tocantins,Ocidental do Tocantins
1707207,TO,336865,Q967767,Dois Irmãos do Tocantins,,7286,7211,pt:Dois Irmãos do Tocantins,,-49.0673386443,-9.2612967098,Dois Irmaos do Tocantins,,Miracema do Tocantins,Ocidental do Tocantins
1707306,TO,336867,Q1800970,Dueré,,4727,4687,pt:Dueré,,-49.2658759162,-11.3412854168,Duere,,Rio Formoso,Ocidental do Tocantins
1707405,TO,336773,Q977277,Esperantina,,10793,10851,pt:Esperantina (Tocantins),,-48.5441476004,-5.3666080594,Esperantina,,Bico do Papagaio,Ocidental do Tocantins
1707553,TO,336754,Q2196935,Fátima,,3879,3841,pt:Fátima (Tocantins),,-48.8989826587,-10.7525087281,Fatima,,Rio Formoso,Ocidental do Tocantins
1707652,TO,336782,Q1801233,Figueirópolis,,5352,5284,pt:Figueirópolis,,-49.1738467307,-12.1367799832,Figueiropolis,,Gurupi,Ocidental do Tocantins
1707702,TO,336826,Q690299,Filadélfia,,8893,8837,pt:Filadélfia (Tocantins),,-47.4849641415,-7.3376119059,Filadelfia,,Araguaína,Ocidental do Tocantins
1708205,TO,336772,Q1801246,Formoso do Araguaia,,18684,18482,pt:Formoso do Araguaia,,-49.5268603629,-11.8051419686,Formoso do Araguaia,,Rio Formoso,Ocidental do Tocantins
1708254,TO,336795,Q1801070,Fortaleza do Tabocão,,2584,2576,pt:Fortaleza do Tabocão,,-48.517426421,-9.0589653011,Fortaleza do Tabocao,,Miracema do Tocantins,Ocidental do Tocantins
1708304,TO,336870,Q1801208,Goianorte,,5153,5116,pt:Goianorte,,-48.9368901924,-8.7705208048,Goianorte,,Miracema do Tocantins,Ocidental do Tocantins
1709005,TO,336829,Q1801197,Goiatins,,12973,12942,pt:Goiatins,,-47.3154354892,-7.7091723902,Goiatins,,Jalapão,Oriental do Tocantins
1709302,TO,336791,Q1801179,Guaraí,,25642,25677,pt:Guaraí,,-48.5086406065,-8.8361656575,Guarai,,Miracema do Tocantins,Ocidental do Tocantins
1709500,TO,336840,Q1784265,Gurupi,,85523,85737,pt:Gurupi,,-49.0714774689,-11.7297723229,Gurupi,,Gurupi,Ocidental do Tocantins
1709807,TO,336815,Q946408,Ipueiras,,1955,1977,pt:Ipueiras (Tocantins),,-48.4519262289,-11.2462886216,Ipueiras,,Porto Nacional,Oriental do Tocantins
1710508,TO,336860,Q535056,Itacajá,,7456,7414,pt:Itacajá,,-47.7681124027,-8.3909805523,Itacaja,,Jalapão,Oriental do Tocantins
1710706,TO,336832,Q1801108,Itaguatins,,5980,5896,pt:Itaguatins,,-47.479935949,-5.7753850884,Itaguatins,,Bico do Papagaio,Ocidental do Tocantins
1710904,TO,336785,Q1800939,Itapiratins,,3772,3758,pt:Itapiratins,,-48.1111996095,-8.3843295934,Itapiratins,,Jalapão,Oriental do Tocantins
1711100,TO,336743,Q770338,Itaporã do Tocantins,,2465,2435,pt:Itaporã do Tocantins,,-48.6932637032,-8.5688286116,Itapora do Tocantins,,Miracema do Tocantins,Ocidental do Tocantins
1711506,TO,336812,Q1801212,Jaú do Tocantins,,3821,3819,pt:Jaú do Tocantins,,-48.5946082927,-12.6529263693,Jau do Tocantins,,Gurupi,Ocidental do Tocantins
1711803,TO,336738,Q374444,Juarina,,2229,2202,pt:Juarina,,-49.0986431854,-8.1174239676,Juarina,,Miracema do Tocantins,Ocidental do Tocantins
1711902,TO,336766,Q1801577,Lagoa da Confusão,,12808,13034,pt:Lagoa da Confusão,,-49.6200853391,-10.7886955576,Lagoa da Confusao,,Rio Formoso,Ocidental do Tocantins
1711951,TO,336787,Q1801591,Lagoa do Tocantins,,4191,4237,pt:Lagoa do Tocantins,,-47.5614466303,-10.296886697,Lagoa do Tocantins,,Jalapão,Oriental do Tocantins
1712009,TO,336741,Q2085548,Lajeado,,3092,3101,pt:Lajeado (Tocantins),,-48.3585039507,-9.7446824357,Lajeado,,Porto Nacional,Oriental do Tocantins
1712157,TO,336758,Q1801192,Lavandeira,,1875,1892,pt:Lavandeira (Tocantins),,-46.5066757157,-12.7916587877,Lavandeira,,Dianópolis,Oriental do Tocantins
1712405,TO,336845,Q1786619,Lizarda,,3787,3748,pt:Lizarda,,-46.6751654558,-9.5945702878,Lizarda,,Jalapão,Oriental do Tocantins
1712454,TO,336783,Q1801642,Luzinópolis,,3038,3060,pt:Luzinópolis,,-47.8568280414,-6.1939896602,Luzinopolis,,Bico do Papagaio,Ocidental do Tocantins
1712504,TO,336858,Q1801628,Marianópolis do Tocantins,,5054,5094,pt:Marianópolis do Tocantins,,-49.6510339944,-9.7988803594,Marianopolis do Tocantins,,Miracema do Tocantins,Ocidental do Tocantins
1712702,TO,336781,Q1801064,Mateiros,,2614,2638,pt:Mateiros,,-46.4124657431,-10.5444288461,Mateiros,,Jalapão,Oriental do Tocantins
1712801,TO,336760,Q1801042,Maurilândia do Tocantins,,3409,3403,pt:Maurilândia do Tocantins,,-47.5048799602,-5.9525664212,Maurilandia do Tocantins,,Bico do Papagaio,Ocidental do Tocantins
1713205,TO,336828,Q993530,Miracema do Tocantins,,19055,18566,pt:Miracema do Tocantins,,-48.3879913115,-9.5683460776,Miracema do Tocantins,,Miracema do Tocantins,Ocidental do Tocantins
1713304,TO,336750,Q1800924,Miranorte,,13426,13375,pt:Miranorte,,-48.5926319369,-9.5174047311,Miranorte,,Miracema do Tocantins,Ocidental do Tocantins
1713601,TO,336861,Q1801517,Monte do Carmo,,7770,7827,pt:Monte do Carmo,,-48.1104200299,-10.7635421946,Monte do Carmo,,Porto Nacional,Oriental do Tocantins
1713700,TO,336874,Q2011582,Monte Santo do Tocantins,,2264,2263,pt:Monte Santo do Tocantins,,-48.9908906034,-10.0055914318,Monte Santo do Tocantins,,Miracema do Tocantins,Ocidental do Tocantins
1713809,TO,336749,Q1801156,Palmeiras do Tocantins,,6535,6570,pt:Palmeiras do Tocantins,,-47.5586835263,-6.6118623346,Palmeiras do Tocantins,,Bico do Papagaio,Ocidental do Tocantins
1713957,TO,336790,Q1801142,Muricilândia,,3507,3514,pt:Muricilândia,,-48.606745277,-7.1385192852,Muricilandia,,Araguaína,Ocidental do Tocantins
1714203,TO,336838,Q1801567,Natividade,,9312,9239,pt:Natividade (Tocantins),,-47.7272575338,-11.7053573825,Natividade,,Dianópolis,Oriental do Tocantins
1714302,TO,336855,Q2289927,Nazaré,,4060,3959,pt:Nazaré (Tocantins),,-47.6669771825,-6.3725579693,Nazare,,Bico do Papagaio,Ocidental do Tocantins
1714880,TO,336751,Q2079727,Nova Olinda,,11715,11719,pt:Nova Olinda (Tocantins),,-48.42480679,-7.6333149107,Nova Olinda,,Araguaína,Ocidental do Tocantins
1715002,TO,336796,Q1801604,Nova Rosalândia,,4203,4215,pt:Nova Rosalândia,,-48.9061807245,-10.5668711393,Nova Rosalandia,,Rio Formoso,Ocidental do Tocantins
1715101,TO,336852,Q1801572,Novo Acordo,,4267,4287,pt:Novo Acordo,,-47.6681483922,-9.9684864657,Novo Acordo,,Jalapão,Oriental do Tocantins
1715150,TO,336851,Q1801587,Novo Alegre,,2353,2332,pt:Novo Alegre,,-46.5772973537,-12.9099386744,Novo Alegre,,Dianópolis,Oriental do Tocantins
1715259,TO,336739,Q1801252,Novo Jardim,,2697,2698,pt:Novo Jardim,,-46.6307872959,-11.8158750501,Novo Jardim,,Dianópolis,Oriental do Tocantins
1715507,TO,336817,Q1801609,Oliveira de Fátima,,1110,1106,pt:Oliveira de Fátima,,-48.9074015689,-10.7083627091,Oliveira de Fatima,,Rio Formoso,Ocidental do Tocantins
1715705,TO,336802,Q523587,Palmeirante,,5859,5919,pt:Palmeirante,,-47.934249709,-7.8575613761,Palmeirante,,Araguaína,Ocidental do Tocantins
1715754,TO,336834,Q1801038,Palmeirópolis,,7687,7641,pt:Palmeirópolis,,-48.4134139552,-13.0398884337,Palmeiropolis,,Gurupi,Ocidental do Tocantins
1716109,TO,336859,Q978148,Paraíso do Tocantins,,50360,50602,pt:Paraíso do Tocantins,,-48.886630084,-10.171220755,Paraiso do Tocantins,,Rio Formoso,Ocidental do Tocantins
1716208,TO,336839,Q1801570,Paranã,,10562,10461,pt:Paranã,,-47.8840837284,-12.6204814887,Parana,,Dianópolis,Oriental do Tocantins
1716307,TO,336797,Q2085357,Pau d'Arco,,4853,4831,pt:Pau-d'Arco (Tocantins),,-49.363306481,-7.5399983557,Pau d'Arco,,Araguaína,Ocidental do Tocantins
1716505,TO,336737,Q1801535,Pedro Afonso,,13288,13380,pt:Pedro Afonso (Tocantins),,-48.1775561127,-8.9644495924,Pedro Afonso,,Porto Nacional,Oriental do Tocantins
1716604,TO,336736,Q654261,Peixe,,11591,11623,pt:Peixe (Tocantins),,-48.5378106263,-12.0297738309,Peixe,,Gurupi,Ocidental do Tocantins
1716653,TO,336756,Q1801219,Pequizeiro,,5453,5443,pt:Pequizeiro,,-48.9351798669,-8.5933406544,Pequizeiro,,Miracema do Tocantins,Ocidental do Tocantins
1716703,TO,336757,Q1801662,Colméia,,8409,8270,pt:Colméia (Tocantins),,-48.7570665857,-8.7293718068,Colmeia,,Miracema do Tocantins,Ocidental do Tocantins
1717008,TO,336841,Q1800896,Pindorama do Tocantins,,4520,4464,pt:Pindorama do Tocantins,,-47.5756877173,-11.1382025847,Pindorama do Tocantins,,Dianópolis,Oriental do Tocantins
1717206,TO,336813,Q962028,Piraquê,,3044,3023,pt:Piraquê,,-48.2937073911,-6.7697770334,Piraque,,Araguaína,Ocidental do Tocantins
1717503,TO,336786,Q1800961,Pium,,7536,7564,pt:Pium,,-49.1666580116,-10.4409311179,Pium,,Rio Formoso,Ocidental do Tocantins
1717800,TO,336842,Q1800881,Ponte Alta do Bom Jesus,,4645,4601,pt:Ponte Alta do Bom Jesus,,-46.4695867924,-12.0878129084,Ponte Alta do Bom Jesus,,Dianópolis,Oriental do Tocantins
1717909,TO,336830,Q1801637,Ponte Alta do Tocantins,,7949,7961,pt:Ponte Alta do Tocantins,,-47.5411803583,-10.7406728487,Ponte Alta do Tocantins,,Jalapão,Oriental do Tocantins
1718006,TO,336810,Q677566,Porto Alegre do Tocantins,,3102,3108,pt:Porto Alegre do Tocantins,,-47.0474256004,-11.6072590991,Porto Alegre do Tocantins,,Dianópolis,Oriental do Tocantins
1718204,TO,336788,Q1784315,Porto Nacional,,52828,52700,pt:Porto Nacional,,-48.4121534584,-10.708569917,Porto Nacional,,Porto Nacional,Oriental do Tocantins
1718303,TO,336779,Q1801132,Praia Norte,,8365,8365,pt:Praia Norte,,-47.8147317333,-5.3967128774,Praia Norte,,Bico do Papagaio,Ocidental do Tocantins
1718402,TO,336747,Q2085534,Presidente Kennedy,,3733,3692,pt:Presidente Kennedy (Tocantins),,-48.5043306701,-8.5299608276,Presidente Kennedy,,Miracema do Tocantins,Ocidental do Tocantins
1718451,TO,336745,Q1801581,Pugmil,,2650,2659,pt:Pugmil,,-48.8942204488,-10.4243071562,Pugmil,,Rio Formoso,Ocidental do Tocantins
1718501,TO,336742,Q1801075,Recursolândia,,4230,4244,pt:Recursolândia,,-47.238041195,-8.7353604539,Recursolandia,,Jalapão,Oriental do Tocantins
1718550,TO,336753,Q2197944,Riachinho,,4601,4604,pt:Riachinho (Tocantins),,-48.141045502,-6.4422113877,Riachinho,,Bico do Papagaio,Ocidental do Tocantins
1718659,TO,336823,Q1801085,Rio da Conceição,,2061,2088,pt:Rio da Conceição,,-46.8803997046,-11.4049400239,Rio da Conceicao,,Dianópolis,Oriental do Tocantins
1718709,TO,336821,Q580856,Rio dos Bois,,2810,2811,pt:Rio dos Bois,,-48.5330479716,-9.3437422387,Rio dos Bois,,Miracema do Tocantins,Ocidental do Tocantins
1718758,TO,336836,Q1801199,Rio Sono,,6512,6468,pt:Rio Sono,,-47.8999416391,-9.3477893341,Rio Sono,,Jalapão,Oriental do Tocantins
1718808,TO,336835,Q1801137,Sampaio,,4579,4627,pt:Sampaio (Tocantins),,-47.8757924572,-5.3492956165,Sampaio,,Bico do Papagaio,Ocidental do Tocantins
1718840,TO,336837,Q1801094,Sandolândia,,3410,3378,pt:Sandolândia,,-49.9333881543,-12.5416001675,Sandolandia,,Rio Formoso,Ocidental do Tocantins
1718865,TO,336862,Q991120,Santa Fé do Araguaia,,7402,7426,pt:Santa Fé do Araguaia,,-48.6939418034,-7.149936385,Santa Fe do Araguaia,,Araguaína,Ocidental do Tocantins
1718881,TO,336854,Q522587,Santa Maria do Tocantins,,3356,3381,pt:Santa Maria do Tocantins,,-47.7452704192,-8.7749764493,Santa Maria do Tocantins,,Porto Nacional,Oriental do Tocantins
1718899,TO,336853,Q1801241,Santa Rita do Tocantins,,2343,2344,pt:Santa Rita do Tocantins,,-48.9092940074,-10.8664553694,Santa Rita do Tocantins,,Gurupi,Ocidental do Tocantins
1718907,TO,336744,Q1801204,Santa Rosa do Tocantins,,4833,4811,pt:Santa Rosa do Tocantins,,-48.1199542218,-11.4514039985,Santa Rosa do Tocantins,,Dianópolis,Oriental do Tocantins
1719004,TO,336774,Q1801050,Santa Tereza do Tocantins,,2825,2834,pt:Santa Tereza do Tocantins,,-47.8062883215,-10.2823615278,Santa Tereza do Tocantins,,Jalapão,Oriental do Tocantins
1720002,TO,336776,Q929170,Santa Terezinha do Tocantins,,2550,2528,pt:Santa Terezinha do Tocantins,,-47.684285363,-6.4369976184,Santa Terezinha do Tocantins,,Bico do Papagaio,Ocidental do Tocantins
1720101,TO,336778,Q1801161,São Bento do Tocantins,,5231,5256,pt:São Bento do Tocantins,,-47.9193922871,-6.0449992572,Sao Bento do Tocantins,,Bico do Papagaio,Ocidental do Tocantins
1720150,TO,336777,Q1801186,São Félix do Tocantins,,1571,1572,pt:São Félix do Tocantins,,-46.654980831,-10.173285854,Sao Felix do Tocantins,,Jalapão,Oriental do Tocantins
1720200,TO,336761,Q1800932,São Miguel do Tocantins,,11906,11967,pt:São Miguel do Tocantins,,-47.5730023394,-5.5538195288,Sao Miguel do Tocantins,,Bico do Papagaio,Ocidental do Tocantins
1720259,TO,336762,Q1800952,São Salvador do Tocantins,,3084,3070,pt:São Salvador do Tocantins,,-48.2320849917,-12.7474334145,Sao Salvador do Tocantins,,Gurupi,Ocidental do Tocantins
1720309,TO,336763,Q1801056,São Sebastião do Tocantins,,4749,4757,pt:São Sebastião do Tocantins,,-48.203834149,-5.2589614537,Sao Sebastiao do Tocantins,,Bico do Papagaio,Ocidental do Tocantins
1720499,TO,336764,Q1801542,São Valério,,4111,4017,pt:São Valério da Natividade,,-48.2329484334,-11.9730674595,Sao Valerio,,Dianópolis,Oriental do Tocantins
1720655,TO,336765,Q1801168,Silvanópolis,,5399,5378,pt:Silvanópolis,,-48.1798241355,-11.1498613086,Silvanopolis,,Porto Nacional,Oriental do Tocantins
1720804,TO,336767,Q1801080,Sítio Novo do Tocantins,,9192,9078,pt:Sítio Novo do Tocantins,,-47.6374226505,-5.6047268567,Sitio Novo do Tocantins,,Bico do Papagaio,Ocidental do Tocantins
1720853,TO,336769,Q2011603,Sucupira,,1941,1946,pt:Sucupira (Tocantins),,-48.9111262827,-11.9862215109,Sucupira,,Gurupi,Ocidental do Tocantins
1720903,TO,336803,Q2078623,Taguatinga,,16530,16538,pt:Taguatinga (Tocantins),,-46.4387317009,-12.3961417387,Taguatinga,,Dianópolis,Oriental do Tocantins
1720937,TO,336804,Q1800947,Taipas do Tocantins,,2130,2131,pt:Taipas do Tocantins,,-46.9845717959,-12.1928372091,Taipas do Tocantins,,Dianópolis,Oriental do Tocantins
1720978,TO,336805,Q1801633,Talismã,,2777,2773,pt:Talismã (Tocantins),,-49.0911184339,-12.7875384069,Talisma,,Gurupi,Ocidental do Tocantins
1721000,TO,336798,Q178993,Palmas,true,286787,291855,pt:Palmas,,-48.3510437082,-10.1632533268,Palmas,,Porto Nacional,Oriental do Tocantins
1721109,TO,336799,Q1801598,Tocantínia,,7460,7471,pt:Tocantínia,,-48.3758796714,-9.558147734,Tocantinia,,Porto Nacional,Oriental do Tocantins
1721208,TO,336800,Q587927,Tocantinópolis,,23119,22896,pt:Tocantinópolis,,-47.4274129287,-6.325634376,Tocantinopolis,,Bico do Papagaio,Ocidental do Tocantins
1721257,TO,336801,Q1801526,Tupirama,,1843,1860,pt:Tupirama,,-48.2066848031,-8.9805695494,Tupirama,,Miracema do Tocantins,Ocidental do Tocantins
1721307,TO,336808,Q1801621,Tupiratins,,2574,2613,pt:Tupiratins,,-48.1229957409,-8.395529997,Tupiratins,,Miracema do Tocantins,Ocidental do Tocantins
1722081,TO,336809,Q1798710,Wanderlândia,,11677,11631,pt:Wanderlândia,,-47.95626773,-6.850125517,Wanderlandia,,Araguaína,Ocidental do Tocantins
1722107,TO,336818,Q635920,Xambioá,,11683,11561,pt:Xambioá,,-48.53160107,-6.41188502,Xambioa,,Araguaína,Ocidental do Tocantins
2100055,MA,332883,,Açailândia,,111339,111757,pt:Açailândia,,-47.5066645931,-4.9513770002,Acailandia,,Imperatriz,Oeste Maranhense
2100105,MA,332900,,Afonso Cunha,,6486,6469,pt:Afonso Cunha,,-43.320869004,-4.1350154769,Afonso Cunha,,Coelho Neto,Leste Maranhense
2100154,MA,332936,,Água Doce do Maranhão,,12457,12488,pt:Água Doce do Maranhão,,-42.1155512017,-2.8402782791,Agua Doce do Maranhao,,Baixo Parnaíba Maranhense,Leste Maranhense
2100204,MA,332985,,Alcântara,,21673,22083,pt:Alcântara (Maranhão),,-44.4170125373,-2.4032765251,Alcantara,,Litoral Ocidental Maranhense,Norte Maranhense
2100303,MA,332823,,Aldeias Altas,,26387,26302,pt:Aldeias Altas,,-43.4687348529,-4.6307794952,Aldeias Altas,,Coelho Neto,Leste Maranhense
2100402,MA,332830,,Altamira do Maranhão,,8070,8066,pt:Altamira do Maranhão,,-45.4646758312,-4.1622692669,Altamira do Maranhao,,Pindaré,Oeste Maranhense
2100436,MA,332864,,Alto Alegre do Maranhão,,26872,26839,pt:Alto Alegre do Maranhão,,-44.4482474945,-4.207227,Alto Alegre do Maranhao,,Codó,Leste Maranhense
2100477,MA,332962,,Alto Alegre do Pindaré,,31312,31894,pt:Alto Alegre do Pindaré,,-45.8420796162,-3.6651703745,Alto Alegre do Pindare,,Pindaré,Oeste Maranhense
2100501,MA,332819,,Alto Parnaíba,,11001,11168,pt:Alto Parnaíba,,-45.9273440133,-9.1083659322,Alto Parnaiba,,Gerais de Balsas,Sul Maranhense
2100550,MA,332774,,Amapá do Maranhão,,6895,6918,pt:Amapá do Maranhão,,-46.0091799004,-1.6809214951,Amapa do Maranhao,,Gurupi,Oeste Maranhense
2100600,MA,332886,,Amarante do Maranhão,,41106,41136,pt:Amarante do Maranhão,,-46.7506375455,-5.5576620002,Amarante do Maranhao,,Imperatriz,Oeste Maranhense
2100709,MA,332973,,Anajatuba,,27352,26614,pt:Anajatuba,,-44.6206700278,-3.2575548421,Anajatuba,,Baixada Maranhense,Norte Maranhense
2100808,MA,332959,,Anapurus,,15696,15566,pt:Anapurus,,-43.1057925097,-3.6670346623,Anapurus,,Chapadinha,Leste Maranhense
2100832,MA,332873,,Apicum-Açu,,18374,17063,pt:Apicum-Açu,,-45.0766520734,-1.5305915778,Apicum-Acu,,Litoral Ocidental Maranhense,Norte Maranhense
2100873,MA,332834,,Araguanã,,15332,15297,pt:Araguanã (Maranhão),,-45.6687944761,-2.9491256233,Araguana,,Pindaré,Oeste Maranhense
2100907,MA,332920,,Araioses,,46074,46103,pt:Araioses,,-41.8991394499,-2.8892558464,Araioses,,Baixo Parnaíba Maranhense,Leste Maranhense
2100956,MA,332945,,Arame,,32145,32637,pt:Arame (Maranhão),,-46.0136362778,-4.886081505,Arame,,Alto Mearim e Grajaú,Centro Maranhense
2101004,MA,332865,,Arari,,29388,29764,pt:Arari,,-44.7788346547,-3.4591709701,Arari,,Baixada Maranhense,Norte Maranhense
2101103,MA,332803,,Axixá,,11975,12076,pt:Axixá,,-44.0545858091,-2.8377968371,Axixa,,Rosário,Norte Maranhense
2101202,MA,332958,,Bacabal,,103359,104633,pt:Bacabal,,-44.7815559641,-4.2315246298,Bacabal,,Médio Mearim,Centro Maranhense
2101251,MA,332988,,Bacabeira,,17053,16855,pt:Bacabeira,,-44.3154229866,-2.9858247788,Bacabeira,,Rosário,Norte Maranhense
2101301,MA,332907,,Bacuri,,17435,18508,pt:Bacuri (Maranhão),,-45.1373489396,-1.7240463185,Bacuri,,Litoral Ocidental Maranhense,Norte Maranhense
2101350,MA,332935,,Bacurituba,,5574,5617,pt:Bacurituba,,-44.7357420062,-2.7108719765,Bacurituba,,Litoral Ocidental Maranhense,Norte Maranhense
2101400,MA,332875,,Balsas,,94779,93826,pt:Balsas,,-46.0389926733,-7.5311699902,Balsas,,Gerais de Balsas,Sul Maranhense
2101509,MA,332932,,Barão de Grajaú,,18619,18714,pt:Barão de Grajaú,,-43.0264526994,-6.7589552056,Barao de Grajau,,Chapadas do Alto Itapecuru,Leste Maranhense
2101608,MA,332984,,Barra do Corda,,87135,87794,pt:Barra do Corda,,-45.2390110161,-5.5083395,Barra do Corda,,Alto Mearim e Grajaú,Centro Maranhense
2101707,MA,332880,,Barreirinhas,,62458,61828,pt:Barreirinhas,,-42.8278025132,-2.7500859488,Barreirinhas,,Lençóis Maranhenses,Norte Maranhense
2101731,MA,332872,,Belágua,,7422,7409,pt:Belágua,,-43.5100616427,-3.1567722275,Belagua,,Chapadinha,Leste Maranhense
2101772,MA,332848,,Bela Vista do Maranhão,,11103,11138,pt:Bela Vista do Maranhão,,-45.2482458782,-3.7377332499,Bela Vista do Maranhao,,Baixada Maranhense,Norte Maranhense
2101806,MA,332827,,Benedito Leite,,5528,5627,pt:Benedito Leite,,-44.559856799,-7.2187997954,Benedito Leite,,Chapadas Das Mangabeiras,Sul Maranhense
2101905,MA,332798,,Bequimão,,20881,21260,pt:Bequimão,,-44.7857301569,-2.4620629951,Bequimao,,Litoral Ocidental Maranhense,Norte Maranhense
2101939,MA,332980,,Bernardo do Mearim,,5973,6011,pt:Bernardo do Mearim,,-44.7643231035,-4.6302874908,Bernardo do Mearim,,Médio Mearim,Centro Maranhense
2101970,MA,332974,,Boa Vista do Gurupi,,9320,9158,pt:Boa Vista do Gurupi,,-46.2987100525,-1.7932961358,Boa Vista do Gurupi,,Gurupi,Oeste Maranhense
2102002,MA,332916,,Bom Jardim,,41120,41435,pt:Bom Jardim (Maranhão),,-45.6018893891,-3.5441609779,Bom Jardim,,Pindaré,Oeste Maranhense
2102036,MA,332942,,Bom Jesus das Selvas,,34278,33479,pt:Bom Jesus das Selvas,,-46.8532412231,-4.4899683531,Bom Jesus das Selvas,,Pindaré,Oeste Maranhense
2102077,MA,332966,,Bom Lugar,,16214,16148,pt:Bom Lugar,,-45.0311078563,-4.3755096015,Bom Lugar,,Médio Mearim,Centro Maranhense
2102101,MA,332972,,Brejo,,36102,36139,pt:Brejo (Maranhão),,-42.7508478268,-3.679178,Brejo,,Chapadinha,Leste Maranhense
2102150,MA,332791,,Brejo de Areia,,8696,9367,pt:Brejo de Areia,,-45.5820952718,-4.3306298975,Brejo de Areia,,Pindaré,Oeste Maranhense
2102200,MA,332779,,Buriti,,28306,28557,pt:Buriti (Maranhão),,-42.9251061778,-3.9455715,Buriti,,Chapadinha,Leste Maranhense
2102309,MA,332867,,Buriti Bravo,,23495,23827,pt:Buriti Bravo,,-43.8356215415,-5.8352881321,Buriti Bravo,,Caxias,Leste Maranhense
2102325,MA,332852,,Buriticupu,,71979,71723,pt:Buriticupu,,-46.4514953191,-4.3259477263,Buriticupu,,Pindaré,Oeste Maranhense
2102358,MA,332888,,Buritirana,,15180,15393,pt:Buritirana,,-47.0172250932,-5.5889151417,Buritirana,,Imperatriz,Oeste Maranhense
2102374,MA,332951,,Cachoeira Grande,,8930,9382,pt:Cachoeira Grande,,-44.0596850158,-2.9319210391,Cachoeira Grande,,Rosário,Norte Maranhense
2102408,MA,332956,,Cajapió,,11019,11136,pt:Cajapió,,-44.6733771646,-2.8828822032,Cajapio,,Litoral Ocidental Maranhense,Norte Maranhense
2102507,MA,332804,,Cajari,,19110,19307,pt:Cajari,,-45.007965335,-3.3238688309,Cajari,,Baixada Maranhense,Norte Maranhense
2102556,MA,332826,,Campestre do Maranhão,,14219,14294,pt:Campestre do Maranhão,,-47.3676328633,-6.1647166458,Campestre do Maranhao,,Porto Franco,Sul Maranhense
2102606,MA,332981,,Cândido Mendes,,19943,20076,pt:Cândido Mendes,,-45.7372683656,-1.4538891085,Candido Mendes,,Gurupi,Oeste Maranhense
2102705,MA,332943,,Cantanhede,,21759,21872,pt:Cantanhede (Maranhão),,-44.3818161358,-3.6283643119,Cantanhede,,Itapecuru Mirim,Norte Maranhense
2102754,MA,332815,,Capinzal do Norte,,10713,10932,pt:Capinzal do Norte,,-44.330436252,-4.7212453888,Capinzal do Norte,,Codó,Leste Maranhense
2102804,MA,332955,,Carolina,,23803,24337,pt:Carolina (Maranhão),,-47.4700918028,-7.3307830052,Carolina,,Porto Franco,Sul Maranhense
2102903,MA,332842,,Carutapera,,23576,23658,pt:Carutapera,,-46.0231508346,-1.200602,Carutapera,,Gurupi,Oeste Maranhense
2103000,MA,332983,,Caxias,,162657,164224,pt:Caxias (Maranhão),,-43.3585394285,-4.8616749902,Caxias,,Caxias,Leste Maranhense
2103109,MA,332878,,Cedral,,10490,10657,pt:Cedral (Maranhão),,-44.5307895278,-1.9979159256,Cedral,,Litoral Ocidental Maranhense,Norte Maranhense
2103125,MA,332922,,Central do Maranhão,,8615,8604,pt:Central do Maranhão,,-44.8318437025,-2.1913139076,Central do Maranhao,,Litoral Ocidental Maranhense,Norte Maranhense
2103158,MA,332845,,Centro do Guilherme,,13555,13243,pt:Centro do Guilherme,,-46.0399601132,-2.4569850818,Centro do Guilherme,,Gurupi,Oeste Maranhense
2103174,MA,332910,,Centro Novo do Maranhão,,21565,21399,pt:Centro Novo do Maranhão,,-46.128408955,-2.1442916986,Centro Novo do Maranhao,,Gurupi,Oeste Maranhense
2103208,MA,332847,,Chapadinha,,78965,79145,pt:Chapadinha,,-43.3611207818,-3.74002452,Chapadinha,,Chapadinha,Leste Maranhense
2103257,MA,332786,,Cidelândia,,14539,14617,pt:Cidelândia,,-47.7842327757,-5.1774210472,Cidelandia,,Imperatriz,Oeste Maranhense
2103307,MA,332990,,Codó,,120810,122597,pt:Codó,,-43.886080235,-4.4513375001,Codo,,Codó,Leste Maranhense
2103406,MA,332979,,Coelho Neto,,48756,49246,pt:Coelho Neto (Maranhão),,-43.0140136155,-4.2547375001,Coelho Neto,,Coelho Neto,Leste Maranhense
2103505,MA,332929,,Colinas,,40575,41042,pt:Colinas (Maranhão),,-44.2497802305,-6.0273655202,Colinas,,Chapadas do Alto Itapecuru,Leste Maranhense
2103554,MA,332891,,Conceição do Lago-Açu,,16192,16072,pt:Conceição do Lago-Açu,,-44.9030159052,-3.8411184579,Conceicao do Lago-Acu,,Baixada Maranhense,Norte Maranhense
2103604,MA,332856,,Coroatá,,64403,65044,pt:Coroatá,,-44.1255992015,-4.128976,Coroata,,Codó,Leste Maranhense
2103703,MA,332838,,Cururupu,,30706,32765,pt:Cururupu,,-44.867761617,-1.8255207812,Cururupu,,Litoral Ocidental Maranhense,Norte Maranhense
2103752,MA,332817,,Davinópolis,,12659,12901,pt:Davinópolis (Maranhão),,-47.4049963875,-5.5344562161,Davinopolis,,Imperatriz,Oeste Maranhense
2103802,MA,332776,,Dom Pedro,,22912,23328,pt:Dom Pedro (Maranhão),,-44.440009911,-5.0384476352,Dom Pedro,,Presidente Dutra,Centro Maranhense
2103901,MA,332773,,Duque Bacelar,,11208,11296,pt:Duque Bacelar,,-42.9441802036,-4.1478190971,Duque Bacelar,,Coelho Neto,Leste Maranhense
2104008,MA,332820,,Esperantinópolis,,16653,17379,pt:Esperantinópolis,,-44.886068699,-4.8703008975,Esperantinopolis,,Médio Mearim,Centro Maranhense
2104057,MA,332861,,Estreito,,42110,41355,pt:Estreito (Maranhão),,-47.4478829861,-6.5680849802,Estreito,,Porto Franco,Sul Maranhense
2104073,MA,332839,,Feira Nova do Maranhão,,8372,8481,pt:Feira Nova do Maranhão,,-46.687355216,-6.9631355406,Feira Nova do Maranhao,,Gerais de Balsas,Sul Maranhense
2104081,MA,332971,,Fernando Falcão,,10326,10258,pt:Fernando Falcão,,-44.9107074022,-6.1549784629,Fernando Falcao,,Alto Mearim e Grajaú,Centro Maranhense
2104099,MA,332941,,Formosa da Serra Negra,,18997,18917,pt:Formosa da Serra Negra,,-46.1863570069,-6.4353041056,Formosa da Serra Negra,,Alto Mearim e Grajaú,Centro Maranhense
2104107,MA,332809,,Fortaleza dos Nogueiras,,12403,12615,pt:Fortaleza dos Nogueiras,,-46.185557542,-6.9659260875,Fortaleza dos Nogueiras,,Chapadas Das Mangabeiras,Sul Maranhense
2104206,MA,332802,,Fortuna,,15262,15536,pt:Fortuna (Maranhão),,-44.1606284272,-5.7362241325,Fortuna,,Presidente Dutra,Centro Maranhense
2104305,MA,332899,,Godofredo Viana,,11830,11672,pt:Godofredo Viana,,-45.7717548081,-1.4098001867,Godofredo Viana,,Gurupi,Oeste Maranhense
2104404,MA,332885,,Gonçalves Dias,,17586,17924,pt:Gonçalves Dias (Maranhão),,-44.3059065359,-5.1439555695,Goncalves Dias,,Presidente Dutra,Centro Maranhense
2104503,MA,332876,,Governador Archer,,10700,10793,pt:Governador Archer,,-44.2757565261,-5.0253878239,Governador Archer,,Presidente Dutra,Centro Maranhense
2104552,MA,332957,,Governador Edison Lobão,,18316,18068,pt:Governador Edison Lobão,,-47.368935839,-5.7474117385,Governador Edison Lobao,,Imperatriz,Oeste Maranhense
2104602,MA,332772,,Governador Eugênio Barros,,16582,16772,pt:Governador Eugênio Barros,,-44.246962646,-5.3224910015,Governador Eugenio Barros,,Presidente Dutra,Centro Maranhense
2104628,MA,332780,,Governador Luiz Rocha,,7708,7772,pt:Governador Luiz Rocha,,-44.0708873355,-5.4728646849,Governador Luiz Rocha,,Presidente Dutra,Centro Maranhense
2104651,MA,332799,,Governador Newton Bello,,9921,10211,pt:Governador Newton Bello,,-45.674501797,-3.4297047199,Governador Newton Bello,,Pindaré,Oeste Maranhense
2104677,MA,332828,,Governador Nunes Freire,,24991,25616,pt:Governador Nunes Freire,,-45.8814811328,-2.13496236,Governador Nunes Freire,,Gurupi,Oeste Maranhense
2104701,MA,332837,,Graça Aranha,,6134,6263,pt:Graça Aranha (Maranhão),,-44.3357912599,-5.4048212131,Graca Aranha,,Presidente Dutra,Centro Maranhense
2104800,MA,332843,,Grajaú,,69232,68876,pt:Grajaú (Maranhão),,-46.142395636,-5.8185484313,Grajau,,Alto Mearim e Grajaú,Centro Maranhense
2104909,MA,332858,,Guimarães,,11728,12063,pt:Guimarães (Maranhão),,-44.5977464563,-2.1350771584,Guimaraes,,Litoral Ocidental Maranhense,Norte Maranhense
2105005,MA,332893,,Humberto de Campos,,28509,28498,pt:Humberto de Campos (Maranhão),,-43.4650921443,-2.5912239723,Humberto de Campos,,Lençóis Maranhenses,Norte Maranhense
2105104,MA,332912,,Icatu,,26835,26953,pt:Icatu,,-44.0658484686,-2.7748278631,Icatu,,Rosário,Norte Maranhense
2105153,MA,332949,,Igarapé do Meio,,14147,14026,pt:Igarapé do Meio,,-45.1833277022,-3.6367085219,Igarape do Meio,,Baixada Maranhense,Norte Maranhense
2105203,MA,332953,,Igarapé Grande,,11206,11252,pt:Igarapé Grande,,-44.8674033459,-4.6608538062,Igarape Grande,,Médio Mearim,Centro Maranhense
2105302,MA,332989,Q504755,Imperatriz,,254569,258016,pt:Imperatriz (Maranhão),,-47.4798108058,-5.5265240252,Imperatriz,,Imperatriz,Oeste Maranhense
2105351,MA,332805,,Itaipava do Grajaú,,16009,15897,pt:Itaipava do Grajaú,,-45.7926825035,-5.1445822618,Itaipava do Grajau,,Alto Mearim e Grajaú,Centro Maranhense
2105401,MA,332816,,Itapecuru Mirim,,67726,67673,pt:Itapecuru Mirim,,-44.3542633904,-3.3990454801,Itapecuru Mirim,,Itapecuru Mirim,Norte Maranhense
2105427,MA,332895,,Itinga do Maranhão,,25589,25932,pt:Itinga do Maranhão,,-47.5279099638,-4.4550039984,Itinga do Maranhao,,Imperatriz,Oeste Maranhense
2105450,MA,332890,,Jatobá,,10221,9993,pt:Jatobá (Maranhão),,-44.2199147698,-5.8196669368,Jatoba,,Chapadas do Alto Itapecuru,Leste Maranhense
2105476,MA,332889,,Jenipapo dos Vieiras,,16321,16432,pt:Jenipapo dos Vieiras,,-45.6333791074,-5.3694249264,Jenipapo dos Vieiras,,Alto Mearim e Grajaú,Centro Maranhense
2105500,MA,332919,,João Lisboa,,23042,23696,pt:João Lisboa,,-47.4050361498,-5.4536629416,Joao Lisboa,,Imperatriz,Oeste Maranhense
2105609,MA,332939,,Joselândia,,15891,16136,pt:Joselândia,,-44.6991525645,-4.9726933289,Joselandia,,Alto Mearim e Grajaú,Centro Maranhense
2105658,MA,332986,,Junco do Maranhão,,3237,3506,pt:Junco do Maranhão,,-46.0707260732,-1.8746095975,Junco do Maranhao,,Gurupi,Oeste Maranhense
2105708,MA,332851,,Lago da Pedra,,49856,49911,pt:Lago da Pedra,,-45.1258913559,-4.564744515,Lago da Pedra,,Pindaré,Oeste Maranhense
2105807,MA,332863,,Lago do Junco,,10672,10808,pt:Lago do Junco,,-45.0513443921,-4.6076432177,Lago do Junco,,Médio Mearim,Centro Maranhense
2105906,MA,332835,,Lago Verde,,16025,16199,pt:Lago Verde,,-44.937635232,-4.0387112953,Lago Verde,,Médio Mearim,Centro Maranhense
2105922,MA,332813,,Lagoa do Mato,,11048,11235,pt:Lagoa do Mato,,-43.5275591166,-6.0452772966,Lagoa do Mato,,Chapadas do Alto Itapecuru,Leste Maranhense
2105948,MA,332811,,Lago dos Rodrigues,,8664,8889,pt:Lago dos Rodrigues,,-44.9764423256,-4.6123757769,Lago dos Rodrigues,,Médio Mearim,Centro Maranhense
2105963,MA,332829,,Lagoa Grande do Maranhão,,11286,11320,pt:Lagoa Grande do Maranhão,,-45.3906142794,-4.9931237371,Lagoa Grande do Maranhao,,Pindaré,Oeste Maranhense
2105989,MA,332987,,Lajeado Novo,,7489,7496,pt:Lajeado Novo,,-47.0324475171,-6.1916092267,Lajeado Novo,,Imperatriz,Oeste Maranhense
2106003,MA,332952,,Lima Campos,,11695,11867,pt:Lima Campos,,-44.4693403292,-4.5170459872,Lima Campos,,Médio Mearim,Centro Maranhense
2106102,MA,332887,,Loreto,,12009,12098,pt:Loreto (Maranhão),,-45.1392416375,-7.0944541654,Loreto,,Chapadas Das Mangabeiras,Sul Maranhense
2106201,MA,332857,,Luís Domingues,,6867,6917,pt:Luís Domingues,,-45.8953319921,-1.3254602444,Luis Domingues,,Gurupi,Oeste Maranhense
2106300,MA,332860,,Magalhães de Almeida,,19779,19620,pt:Magalhães de Almeida,,-42.2015066914,-3.3966676742,Magalhaes de Almeida,,Baixo Parnaíba Maranhense,Leste Maranhense
2106326,MA,332862,,Maracaçumé,,21293,21201,pt:Maracaçumé,,-45.9586390372,-2.0561645495,Maracacume,,Gurupi,Oeste Maranhense
2106359,MA,332846,,Marajá do Sena,,7604,7810,pt:Marajá do Sena,,-45.4572376526,-4.6203133241,Maraja do Sena,,Pindaré,Oeste Maranhense
2106375,MA,332836,,Maranhãozinho,,16366,16013,pt:Maranhãozinho,,-45.8556114549,-2.2356169921,Maranhaozinho,,Gurupi,Oeste Maranhense
2106409,MA,332832,,Mata Roma,,16745,16679,pt:Mata Roma,,-43.1203894236,-3.6190455099,Mata Roma,,Chapadinha,Leste Maranhense
2106508,MA,332797,,Matinha,,23091,23256,pt:Matinha,,-45.0364289401,-3.09840003,Matinha,,Baixada Maranhense,Norte Maranhense
2106607,MA,332777,,Matões,,33374,33615,pt:Matões,,-43.2012082829,-5.5224650194,Matoes,,Caxias,Leste Maranhense
2106631,MA,332963,,Matões do Norte,,16908,16451,pt:Matões do Norte,,-44.5502445069,-3.6275187802,Matoes do Norte,,Itapecuru Mirim,Norte Maranhense
2106672,MA,332975,,Milagres do Maranhão,,8326,8445,pt:Milagres do Maranhão,,-42.6107528325,-3.5822066414,Milagres do Maranhao,,Chapadinha,Leste Maranhense
2106706,MA,332913,,Mirador,,20613,21000,pt:Mirador (Maranhão),,-44.3626097939,-6.3775656954,Mirador,,Chapadas do Alto Itapecuru,Leste Maranhense
2106755,MA,332894,,Miranda do Norte,,28456,28001,pt:Miranda do Norte,,-44.5842756917,-3.5626447744,Miranda do Norte,,Itapecuru Mirim,Norte Maranhense
2106805,MA,332897,,Mirinzal,,14744,14913,pt:Mirinzal,,-44.7857559865,-2.0642241916,Mirinzal,,Litoral Ocidental Maranhense,Norte Maranhense
2106904,MA,332831,,Monção,,33156,33201,pt:Monção (Maranhão),,-45.2475846706,-3.49393248,Moncao,,Baixada Maranhense,Norte Maranhense
2107001,MA,332854,,Montes Altos,,8889,9209,pt:Montes Altos,,-47.070439508,-5.8285625042,Montes Altos,,Imperatriz,Oeste Maranhense
2107100,MA,332874,,Morros,,19282,19292,pt:Morros (Maranhão),,-44.0445445432,-2.8614789531,Morros,,Rosário,Norte Maranhense
2107209,MA,332794,,Nina Rodrigues,,14489,14264,pt:Nina Rodrigues (Maranhão),,-43.9044847603,-3.4624642894,Nina Rodrigues,,Itapecuru Mirim,Norte Maranhense
2107258,MA,332822,,Nova Colinas,,5350,5340,pt:Nova Colinas,,-46.2593252229,-7.1205660036,Nova Colinas,,Chapadas Das Mangabeiras,Sul Maranhense
2107308,MA,332810,,Nova Iorque,,4586,4683,pt:Nova Iorque (Maranhão),,-44.0486267271,-6.7332033058,Nova Iorque,,Chapadas do Alto Itapecuru,Leste Maranhense
2107357,MA,332947,,Nova Olinda do Maranhão,,20768,20774,pt:Nova Olinda do Maranhão,,-45.7045360408,-2.7998865441,Nova Olinda do Maranhao,,Pindaré,Oeste Maranhense
2107407,MA,332961,,Olho d'Água das Cunhãs,,19206,19448,pt:Olho d'Água das Cunhãs,,-45.1195796205,-4.1372759298,Olho d'Agua das Cunhas,,Médio Mearim,Centro Maranhense
2107456,MA,332976,,Olinda Nova do Maranhão,,14637,14563,pt:Olinda Nova do Maranhão,,-45.0032353745,-2.9974776154,Olinda Nova do Maranhao,,Baixada Maranhense,Norte Maranhense
2107506,MA,332881,,Paço do Lumiar,,122420,120621,pt:Paço do Lumiar,,-44.0986923548,-2.528063,Paco do Lumiar,,Aglomeração Urbana de São Luís,Norte Maranhense
2107605,MA,332909,,Palmeirândia,,19424,19661,pt:Palmeirândia,,-44.9044638923,-2.6477742783,Palmeirandia,,Baixada Maranhense,Norte Maranhense
2107704,MA,332927,,Paraibano,,21116,21290,pt:Paraibano (Maranhão),,-43.9857620488,-6.4318254141,Paraibano,,Chapadas do Alto Itapecuru,Leste Maranhense
2107803,MA,332933,,Parnarama,,34375,34805,pt:Parnarama,,-43.0904013535,-5.6844671764,Parnarama,,Caxias,Leste Maranhense
2107902,MA,332931,,Passagem Franca,,18839,18898,pt:Passagem Franca,,-43.7817452259,-6.1739944256,Passagem Franca,,Chapadas do Alto Itapecuru,Leste Maranhense
2108009,MA,332840,,Pastos Bons,,19271,19358,pt:Pastos Bons,,-44.0886025134,-6.6040277321,Pastos Bons,,Chapadas do Alto Itapecuru,Leste Maranhense
2108058,MA,332869,,Paulino Neves,,15937,15901,pt:Paulino Neves,,-42.5454239809,-2.7182059898,Paulino Neves,,Lençóis Maranhenses,Norte Maranhense
2108108,MA,332868,,Paulo Ramos,,20657,21015,pt:Paulo Ramos (Maranhão),,-45.2399800047,-4.4479567659,Paulo Ramos,,Pindaré,Oeste Maranhense
2108207,MA,332787,,Pedreiras,,38365,39267,pt:Pedreiras (Maranhão),,-44.6037348763,-4.5693506881,Pedreiras,,Médio Mearim,Centro Maranhense
2108256,MA,332944,,Pedro do Rosário,,25000,24930,pt:Pedro do Rosário,,-45.3464537341,-2.9681146727,Pedro do Rosario,,Baixada Maranhense,Norte Maranhense
2108306,MA,332946,,Penalva,,38144,38203,pt:Penalva (Maranhão),,-45.1764616888,-3.2932333178,Penalva,,Baixada Maranhense,Norte Maranhense
2108405,MA,332964,,Peri Mirim,,14074,14291,pt:Peri Mirim,,-44.8502907001,-2.5730546485,Peri Mirim,,Baixada Maranhense,Norte Maranhense
2108454,MA,332965,,Peritoró,,23019,23025,pt:Peritoró,,-44.3258535239,-4.3702251177,Peritoro,,Codó,Leste Maranhense
2108504,MA,332896,,Pindaré-Mirim,,32488,32815,pt:Pindaré-Mirim,,-45.3468679178,-3.6055005749,Pindare-Mirim,,Pindaré,Oeste Maranhense
2108603,MA,332882,,Pinheiro,,82374,82990,pt:Pinheiro (Maranhão),,-45.0839266013,-2.5227405,Pinheiro,,Baixada Maranhense,Norte Maranhense
2108702,MA,332921,,Pio XII,,20861,21594,pt:Pio XII (Maranhão),,-45.1699603887,-3.8875875301,Pio XII,,Médio Mearim,Centro Maranhense
2108801,MA,332928,,Pirapemas,,18413,18527,pt:Pirapemas,,-44.2282808838,-3.7253290661,Pirapemas,,Itapecuru Mirim,Norte Maranhense
2108900,MA,332925,,Poção de Pedras,,17023,18157,pt:Poção de Pedras,,-44.9515514003,-4.7500252112,Pocao de Pedras,,Médio Mearim,Centro Maranhense
2109007,MA,332911,,Porto Franco,,23760,23675,pt:Porto Franco,,-47.3821649019,-6.3541818639,Porto Franco,,Porto Franco,Sul Maranhense
2109056,MA,332884,,Porto Rico do Maranhão,,5819,5995,pt:Porto Rico do Maranhão,,-44.5837478896,-1.8572232148,Porto Rico do Maranhao,,Litoral Ocidental Maranhense,Norte Maranhense
2109106,MA,332970,,Presidente Dutra,,47239,47567,pt:Presidente Dutra (Maranhão),,-44.4929188624,-5.2823742578,Presidente Dutra,,Presidente Dutra,Centro Maranhense
2109205,MA,332954,,Presidente Juscelino,,12656,12629,pt:Presidente Juscelino (Maranhão),,-44.0767794214,-2.9282292461,Presidente Juscelino,,Rosário,Norte Maranhense
2109239,MA,332940,,Presidente Médici,,6968,6959,pt:Presidente Médici (Maranhão),,-45.8207086476,-2.3836640465,Presidente Medici,,Pindaré,Oeste Maranhense
2109270,MA,332818,,Presidente Sarney,,18797,18764,pt:Presidente Sarney (Maranhão),,-45.3713022606,-2.5955305599,Presidente Sarney,,Baixada Maranhense,Norte Maranhense
2109304,MA,332821,,Presidente Vargas,,11474,11124,pt:Presidente Vargas (Maranhão),,-44.0334018673,-3.4020115222,Presidente Vargas,,Itapecuru Mirim,Norte Maranhense
2109403,MA,332785,,Primeira Cruz,,15207,15197,pt:Primeira Cruz,,-43.4424433047,-2.510583172,Primeira Cruz,,Lençóis Maranhenses,Norte Maranhense
2109452,MA,332859,,Raposa,,30863,30337,pt:Raposa (Maranhão),,-44.1025161642,-2.4150749026,Raposa,,Aglomeração Urbana de São Luís,Norte Maranhense
2109502,MA,332833,,Riachão,,19701,20243,pt:Riachão (Maranhão),,-46.6233501429,-7.3645650002,Riachao,,Gerais de Balsas,Sul Maranhense
2109551,MA,332908,,Ribamar Fiquene,,7691,7755,pt:Ribamar Fiquene,,-47.3834777871,-5.9338228588,Ribamar Fiquene,,Imperatriz,Oeste Maranhense
2109601,MA,332918,,Rosário,,42314,42482,pt:Rosário (Maranhão),,-44.2475185953,-2.941543035,Rosario,,Rosário,Norte Maranhense
2109700,MA,332879,,Sambaíba,,5568,5663,pt:Sambaíba,,-45.344203198,-7.1383508975,Sambaiba,,Chapadas Das Mangabeiras,Sul Maranhense
2109759,MA,332902,,Santa Filomena do Maranhão,,7708,7719,pt:Santa Filomena do Maranhão,,-44.5637140401,-5.4997668067,Santa Filomena do Maranhao,,Alto Mearim e Grajaú,Centro Maranhense
2109809,MA,332960,,Santa Helena,,41891,41770,pt:Santa Helena (Maranhão),,-45.3051611932,-2.2345325089,Santa Helena,,Baixada Maranhense,Norte Maranhense
2109908,MA,332808,,Santa Inês,,88013,88590,pt:Santa Inês (Maranhão),,-45.3782724523,-3.65857452,Santa Ines,,Pindaré,Oeste Maranhense
2110005,MA,332812,,Santa Luzia,,71576,72440,pt:Santa Luzia (Maranhão),,-45.6650117249,-3.968391465,Santa Luzia,,Pindaré,Oeste Maranhense
2110039,MA,332814,,Santa Luzia do Paruá,,24946,25134,pt:Santa Luzia do Paruá,,-45.7764615616,-2.5461614748,Santa Luzia do Parua,,Pindaré,Oeste Maranhense
2110104,MA,332825,,Santa Quitéria do Maranhão,,25334,25519,pt:Santa Quitéria do Maranhão,,-42.5628730097,-3.4984849951,Santa Quiteria do Maranhao,,Baixo Parnaíba Maranhense,Leste Maranhense
2110203,MA,332824,,Santa Rita,,37090,37404,pt:Santa Rita (Maranhão),,-44.3199480819,-3.1341167657,Santa Rita,,Rosário,Norte Maranhense
2110237,MA,332781,,Santana do Maranhão,,13395,13223,pt:Santana do Maranhão,,-42.4007677572,-3.1130683428,Santana do Maranhao,,Baixo Parnaíba Maranhense,Leste Maranhense
2110278,MA,332788,,Santo Amaro do Maranhão,,15853,15654,pt:Santo Amaro do Maranhão,,-43.2552849422,-2.502721199,Santo Amaro do Maranhao,,Lençóis Maranhenses,Norte Maranhense
2110302,MA,332775,,Santo Antônio dos Lopes,,14222,14534,pt:Santo Antônio dos Lopes,,-44.3614474338,-4.8738195756,Santo Antonio dos Lopes,,Médio Mearim,Centro Maranhense
2110401,MA,332778,,São Benedito do Rio Preto,,18377,18608,pt:São Benedito do Rio Preto,,-43.5299918702,-3.3327660037,Sao Benedito do Rio Preto,,Chapadinha,Leste Maranhense
2110500,MA,332807,,São Bento,,46039,44811,pt:São Bento (Maranhão),,-44.8283451799,-2.6970075,Sao Bento,,Baixada Maranhense,Norte Maranhense
2110609,MA,332806,,São Bernardo,,28208,28343,pt:São Bernardo (Maranhão),,-42.4230096609,-3.3654365101,Sao Bernardo,,Baixo Parnaíba Maranhense,Leste Maranhense
2110658,MA,332800,,São Domingos do Azeitão,,7291,7363,pt:São Domingos do Azeitão,,-44.6504239103,-6.8044250098,Sao Domingos do Azeitao,,Chapadas Das Mangabeiras,Sul Maranhense
2110708,MA,332850,,São Domingos do Maranhão,,33691,34368,pt:São Domingos do Maranhão,,-44.3928792569,-5.5656420002,Sao Domingos do Maranhao,,Presidente Dutra,Centro Maranhense
2110807,MA,332855,,São Félix de Balsas,,4453,4609,pt:São Félix de Balsas,,-44.8114476615,-7.0846851542,Sao Felix de Balsas,,Chapadas Das Mangabeiras,Sul Maranhense
2110856,MA,332853,,São Francisco do Brejão,,11808,11652,pt:São Francisco do Brejão,,-47.3911373986,-5.1302007872,Sao Francisco do Brejao,,Imperatriz,Oeste Maranhense
2110906,MA,332849,,São Francisco do Maranhão,,11976,12201,pt:São Francisco do Maranhão,,-42.8653217276,-6.2527979167,Sao Francisco do Maranhao,,Chapadas do Alto Itapecuru,Leste Maranhense
2111003,MA,332870,,São João Batista,,20307,20629,pt:São João Batista (Maranhão),,-44.8117618531,-2.9533329125,Sao Joao Batista,,Baixada Maranhense,Norte Maranhense
2111029,MA,332871,,São João do Carú,,15450,15828,pt:São João do Carú,,-46.2549254827,-3.5608034069,Sao Joao do Caru,,Pindaré,Oeste Maranhense
2111052,MA,332841,,São João do Paraíso,,10977,11162,pt:São João do Paraíso (Maranhão),,-47.0506104205,-6.4662222864,Sao Joao do Paraiso,,Porto Franco,Sul Maranhense
2111078,MA,332844,,São João do Soter,,18345,18438,pt:São João do Soter,,-43.8181817951,-5.1157392644,Sao Joao do Soter,,Caxias,Leste Maranhense
2111102,MA,332892,,São João dos Patos,,25520,25860,pt:São João dos Patos,,-43.7029101658,-6.4982081521,Sao Joao dos Patos,,Chapadas do Alto Itapecuru,Leste Maranhense
2111201,MA,332877,Q1006367,São José de Ribamar,,176418,176321,pt:São José de Ribamar,,-44.0575481151,-2.55585852,Sao Jose de Ribamar,,Aglomeração Urbana de São Luís,Norte Maranhense
2111250,MA,332930,,São José dos Basílios,,7484,7642,pt:São José dos Basílios,,-44.5824465176,-5.0486872452,Sao Jose dos Basilios,,Presidente Dutra,Centro Maranhense
2111300,MA,332923,Q28441,São Luís,true,1091868,1094667,pt:São Luís (Maranhão),,-44.2979185642,-2.5318859851,Sao Luis,,Aglomeração Urbana de São Luís,Norte Maranhense
2111409,MA,332934,,São Luís Gonzaga do Maranhão,,18247,18988,pt:São Luís Gonzaga do Maranhão,,-44.6627084964,-4.3739184906,Sao Luis Gonzaga do Maranhao,,Médio Mearim,Centro Maranhense
2111508,MA,332937,,São Mateus do Maranhão,,40992,41350,pt:São Mateus do Maranhão,,-44.4685628111,-4.0345505101,Sao Mateus do Maranhao,,Médio Mearim,Centro Maranhense
2111532,MA,332938,,São Pedro da Água Branca,,12511,12645,pt:São Pedro da Água Branca,,-48.4236235936,-5.0889109974,Sao Pedro da Agua Branca,,Imperatriz,Oeste Maranhense
2111573,MA,332948,,São Pedro dos Crentes,,4601,4651,pt:São Pedro dos Crentes,,-46.5325803474,-6.8285556408,Sao Pedro dos Crentes,,Porto Franco,Sul Maranhense
2111607,MA,332950,,São Raimundo das Mangabeiras,,18680,18755,pt:São Raimundo das Mangabeiras,,-45.4848314302,-7.0269626572,Sao Raimundo das Mangabeiras,,Chapadas Das Mangabeiras,Sul Maranhense
2111631,MA,332982,,São Raimundo do Doca Bezerra,,4946,5345,pt:São Raimundo do Doca Bezerra,,-45.0841627903,-5.1031818449,Sao Raimundo do Doca Bezerra,,Médio Mearim,Centro Maranhense
2111672,MA,332978,,São Roberto,,6704,6649,pt:São Roberto (Maranhão),,-44.9919011593,-5.0173668824,Sao Roberto,,Médio Mearim,Centro Maranhense
2111706,MA,332977,,São Vicente Ferrer,,20913,22142,pt:São Vicente Ferrer (Maranhão),,-44.8869045766,-2.8907310644,Sao Vicente Ferrer,,Baixada Maranhense,Norte Maranhense
2111722,MA,332968,,Satubinha,,13949,13730,pt:Satubinha,,-45.2336295762,-4.0357354948,Satubinha,,Médio Mearim,Centro Maranhense
2111748,MA,332967,,Senador Alexandre Costa,,11042,11067,pt:Senador Alexandre Costa,,-44.0563015064,-5.2610765444,Senador Alexandre Costa,,Presidente Dutra,Centro Maranhense
2111763,MA,332969,,Senador La Rocque,,13877,14367,pt:Senador La Rocque,,-47.289191424,-5.4418324952,Senador La Rocque,,Imperatriz,Oeste Maranhense
2111789,MA,332801,,Serrano do Maranhão,,11040,10206,pt:Serrano do Maranhão,,-45.1146408497,-1.8526455417,Serrano do Maranhao,,Litoral Ocidental Maranhense,Norte Maranhense
2111805,MA,332792,,Sítio Novo,,17851,18001,pt:Sítio Novo (Maranhão),,-46.6949833407,-5.8706298913,Sitio Novo,,Alto Mearim e Grajaú,Centro Maranhense
2111904,MA,332793,,Sucupira do Norte,,10416,10639,pt:Sucupira do Norte,,-44.1886027052,-6.4782844476,Sucupira do Norte,,Chapadas do Alto Itapecuru,Leste Maranhense
2111953,MA,332795,,Sucupira do Riachão,,5571,5645,pt:Sucupira do Riachão,,-43.5458533208,-6.4201084051,Sucupira do Riachao,,Chapadas do Alto Itapecuru,Leste Maranhense
2112001,MA,332796,,Tasso Fragoso,,8455,8459,pt:Tasso Fragoso (Maranhão),,-45.7441235175,-8.4798310179,Tasso Fragoso,,Gerais de Balsas,Sul Maranhense
2112100,MA,332784,,Timbiras,,28635,29064,pt:Timbiras,,-43.9384339738,-4.253840505,Timbiras,,Codó,Leste Maranhense
2112209,MA,332783,,Timon,,167619,167973,pt:Timon,,-42.8337278989,-5.1006811101,Timon,,Caxias,Leste Maranhense
2112233,MA,332782,,Trizidela do Vale,,21749,21885,pt:Trizidela do Vale,,-44.6106851966,-4.5701268566,Trizidela do Vale,,Médio Mearim,Centro Maranhense
2112274,MA,332790,,Tufilândia,,5746,5826,pt:Tufilândia,,-45.6339164757,-3.6764041184,Tufilandia,,Pindaré,Oeste Maranhense
2112308,MA,332789,,Tuntum,,41342,41621,pt:Tuntum,,-44.6490121517,-5.24965554,Tuntum,,Alto Mearim e Grajaú,Centro Maranhense
2112407,MA,332901,,Turiaçu,,35063,35497,pt:Turiaçu,,-45.3691524172,-1.6690220477,Turiacu,,Gurupi,Oeste Maranhense
2112456,MA,332898,,Turilândia,,25533,25365,pt:Turilândia,,-45.306765312,-2.228833525,Turilandia,,Gurupi,Oeste Maranhense
2112506,MA,332905,,Tutóia,,58605,58311,pt:Tutóia,,-42.2768472077,-2.7635501969,Tutoia,,Lençóis Maranhenses,Norte Maranhense
2112605,MA,332904,,Urbano Santos,,33038,32775,pt:Urbano Santos,,-43.4042484724,-3.2084094996,Urbano Santos,,Chapadinha,Leste Maranhense
2112704,MA,332903,,Vargem Grande,,56511,55841,pt:Vargem Grande,,-43.9166644902,-3.5418960001,Vargem Grande,,Itapecuru Mirim,Norte Maranhense
2112803,MA,332906,,Viana,,51738,52229,pt:Viana (Maranhão),,-45.0013066953,-3.2145625131,Viana,,Baixada Maranhense,Norte Maranhense
2112852,MA,332917,,Vila Nova dos Martírios,,13480,13183,pt:Vila Nova dos Martírios,,-48.1389264826,-5.1835115192,Vila Nova dos Martirios,,Imperatriz,Oeste Maranhense
2112902,MA,332914,,Vitória do Mearim,,32267,32664,pt:Vitória do Mearim,,-44.8695722406,-3.4820473645,Vitoria do Mearim,,Baixada Maranhense,Norte Maranhense
2113009,MA,332915,,Vitorino Freire,,30879,31525,pt:Vitorino Freire,,-45.2441851432,-4.2911865001,Vitorino Freire,,Pindaré,Oeste Maranhense
2114007,MA,332926,,Zé Doca,,51084,51471,pt:Zé Doca,,-45.6576978606,-3.2754805,Ze Doca,,Pindaré,Oeste Maranhense
2200053,PI,302709,Q2066143,Acauã,,6966,7065,pt:Acauã (Piauí),,-41.0836378172,-8.2207866629,Acaua,,Alto Médio Canindé,Sudeste Piauiense
2200103,PI,302845,Q1936312,Agricolândia,,5062,5148,pt:Agricolândia,,-42.6591831974,-5.7955019354,Agricolandia,,Médio Parnaíba Piauiense,Centro-Norte Piauiense
2200202,PI,302769,Q578114,Água Branca,,17119,17349,pt:Água Branca (Piauí),,-42.63513086,-5.8932663379,Agua Branca,,Médio Parnaíba Piauiense,Centro-Norte Piauiense
2200251,PI,302669,Q2064226,Alagoinha do Piauí,,7526,7636,pt:Alagoinha do Piauí,,-40.9346348169,-7.0081752801,Alagoinha do Piaui,,Pio Ix,Sudeste Piauiense
2200277,PI,302852,Q633346,Alegrete do Piauí,,4838,4912,pt:Alegrete do Piauí,,-40.8578629896,-7.2453494663,Alegrete do Piaui,,Pio Ix,Sudeste Piauiense
2200301,PI,302804,Q636564,Alto Longá,,14070,14268,pt:Alto Longá,,-42.2103219622,-5.2509930114,Alto Longa,,Campo Maior,Centro-Norte Piauiense
2200400,PI,302774,Q1940492,Altos,,39864,40440,pt:Altos,,-42.4609480356,-5.0365464343,Altos,,Teresina,Centro-Norte Piauiense
2200459,PI,302725,Q1940535,Alvorada do Gurguéia,,5326,5392,pt:Alvorada do Gurgueia,,-43.8630715789,-8.4439590723,Alvorada do Gurgueia,,Alto Médio Gurguéia,Sudoeste Piauiense
2200509,PI,302826,Q2094729,Amarante,,17322,17592,pt:Amarante (Piauí),,-42.853692823,-6.2466107722,Amarante,,Médio Parnaíba Piauiense,Centro-Norte Piauiense
2200608,PI,302863,Q1892127,Angical do Piauí,,6684,6792,pt:Angical do Piauí,,-42.7438657484,-6.0872416921,Angical do Piaui,,Médio Parnaíba Piauiense,Centro-Norte Piauiense
2200707,PI,302719,Q1938748,Anísio de Abreu,,9705,9818,pt:Anísio de Abreu,,-43.0348533321,-9.1749185309,Anisio de Abreu,,São Raimundo Nonato,Sudoeste Piauiense
2200806,PI,302758,Q2064181,Antônio Almeida,,3114,3158,pt:Antônio Almeida,,-44.19653532,-7.219355834,Antonio Almeida,,Bertolínia,Sudoeste Piauiense
2200905,PI,302815,Q1940548,Aroazes,,5748,5844,pt:Aroazes,,-41.7974533388,-6.1128502563,Aroazes,,Valença do Piauí,Centro-Norte Piauiense
2200954,PI,302678,Q2095297,Aroeiras do Itaim,,2511,2551,pt:Aroeiras do Itaim,,-41.5632044183,-7.278745465,Aroeiras do Itaim,,Picos,Sudeste Piauiense
2201002,PI,302658,Q2064170,Arraial,,4656,4735,pt:Arraial,,-42.5365666247,-6.6508270275,Arraial,,Médio Parnaíba Piauiense,Centro-Norte Piauiense
2201051,PI,302685,Q2078771,Assunção do Piauí,,7717,7828,pt:Assunção do Piauí,,-41.0508299965,-5.8649144945,Assuncao do Piaui,,Campo Maior,Centro-Norte Piauiense
2201101,PI,302667,Q1809642,Avelino Lopes,,11503,11252,pt:Avelino Lopes,,-43.9415101418,-10.1347450128,Avelino Lopes,,Chapadas do Extremo Sul Piauiense,Sudoeste Piauiense
2201150,PI,302841,Q2049334,Baixa Grande do Ribeiro,,11375,11497,pt:Baixa Grande do Ribeiro,,-45.2128152926,-7.8533519592,Baixa Grande do Ribeiro,,Alto Parnaíba Piauiense,Sudoeste Piauiense
2201176,PI,302668,Q1938757,Barra d'Alcântara,,3889,3950,pt:Barra d'Alcântara,,-42.1050020826,-6.5188730723,Barra d'Alcantara,,Valença do Piauí,Centro-Norte Piauiense
2201200,PI,302767,Q808836,Barras,,46291,46941,pt:Barras,,-42.2953398573,-4.2430933543,Barras,,Baixo Parnaíba Piauiense,Norte Piauiense
2201309,PI,302724,Q618000,Barreiras do Piauí,,3294,3344,pt:Barreiras do Piauí,,-45.4777877055,-9.9212468267,Barreiras do Piaui,,Alto Médio Gurguéia,Sudoeste Piauiense
